,id,state_name,state_ab,county,city,zip_code,census_lat,census_lon,mean,median,stdev,sum_w
0,1011000,Alabama,AL,Mobile County,Chickasaw,36611,30.77145,-88.079697,38773,30506,33101,1638.260513
1,1011010,Alabama,AL,Barbour County,Louisville,36048,31.708516,-85.611039,37725,19528,43789,258.0176847
2,1011020,Alabama,AL,Shelby County,Columbiana,35051,33.191452,-86.615618,54606,31930,57348,926.0309998
3,1011030,Alabama,AL,Mobile County,Satsuma,36572,30.874343,-88.009442,63919,52814,47707,378.1146191
4,1011040,Alabama,AL,Mobile County,Dauphin Island,36528,30.250913,-88.171268,77948,67225,54270,282.3203278
5,1011050,Alabama,AL,Cullman County,Cullman,35057,34.045414,-86.88267,50715,42643,35886,173.3259586
6,1011060,Alabama,AL,Escambia County,East Brewton,36426,31.09144,-87.055345,33737,23610,28256,758.7713224
7,1011070,Alabama,AL,Elmore County,Coosada,36020,32.544337,-86.336446,46319,40242,38941,397.0525642
8,1011080,Alabama,AL,Morgan County,Eva,35621,34.326504,-86.765318,57994,39591,47235,137.4960385
9,1011090,Alabama,AL,Talladega County,Sylacauga,35151,33.168097,-86.442774,54807,41712,51359,380.7282381
10,1011100,Alabama,AL,DeKalb County,Rainsville,35986,34.457329,-85.689447,47929,38947,44430,3621.630319
11,1011110,Alabama,AL,Etowah County,Gadsden,35901,34.009563,-86.015643,42251,28811,41397,10716.13924
12,1011120,Alabama,AL,Butler County,Georgiana,36033,31.639134,-86.746762,27993,19757,27656,553.4382141
13,1011130,Alabama,AL,Coosa County,Rockford,35136,33.060835,-86.052333,31229,22745,27452,528.0848847
14,1011140,Alabama,AL,Hale County,Greensboro,36744,32.700968,-87.5937,36439,21136,45043,775.2524846
15,1011150,Alabama,AL,Marion County,Guin,35563,33.944319,-87.870368,56934,39047,53934,37.26433151
16,1011160,Alabama,AL,Geneva County,Hartford,36344,31.105348,-85.691225,41057,21608,45280,770.5658392
17,1011170,Alabama,AL,Jefferson County,Helena,35080,33.285635,-86.874488,93682,300000,55763,359.4448283
18,1011180,Alabama,AL,Etowah County,Hokes Bluff,35903,33.989682,-85.862873,57202,46738,44401,1140.74819
19,1011190,Alabama,AL,Covington County,Opp,36467,31.238158,-86.325104,49699,34049,48287,77.3974208
20,1011200,Alabama,AL,Etowah County,Attalla,35954,34.0372,-86.147175,51926,300000,28590,179.8272518
21,1011210,Alabama,AL,Lamar County,Millport,35576,33.580891,-87.986179,44572,34725,36562,152.1953912
22,1011220,Alabama,AL,Jackson County,Section,35771,34.545063,-86.09335,56029,31635,62581,65.43145682
23,1011230,Alabama,AL,Covington County,Andalusia,36420,31.24398,-86.46015,51098,43794,32431,46.1990035
24,1011240,Alabama,AL,Covington County,Lockhart,36455,31.013011,-86.350273,45465,36849,45634,129.8286383
25,1011250,Alabama,AL,Washington County,Mcintosh,36553,31.264957,-88.028369,67392,48713,54529,74.13138169
26,1011260,Alabama,AL,Chilton County,Maplesville,36750,32.788282,-86.876651,43767,30427,38304,210.1906399
27,1011270,Alabama,AL,Jefferson County,Fairfield,35064,33.455197,-86.922633,48074,39817,37964,1376.65118
28,1011280,Alabama,AL,Mobile County,Mobile,36606,30.668426,-88.100226,53330,38231,50855,51243.64837
29,1011290,Alabama,AL,Lawrence County,Moulton,35650,34.488302,-87.282707,42079,28180,39942,1081.054675
30,1011300,Alabama,AL,Colbert County,Muscle Shoals,35661,34.743692,-87.633774,60729,49109,48170,3371.984785
31,1011310,Alabama,AL,Hale County,Newbern,36765,32.591672,-87.535614,32466,17389,31851,56.33131773
32,1011320,Alabama,AL,Tuscaloosa County,Northport,35476,33.257975,-87.59647,62410,54115,47114,5311.537683
33,1011330,Alabama,AL,Lee County,Opelika,36801,32.660739,-85.37889,55199,40430,48856,7259.667898
34,1011340,Alabama,AL,Sumter County,Panola,35477,32.946819,-88.262264,22603,6190,29054,9.998088877
35,1011350,Alabama,AL,Lee County,Ozark,36867,32.461669,-85.025021,86605,79218,52491,695.8472292
36,1011360,Alabama,AL,Autauga County,Deatsville,36022,32.579539,-86.454318,63066,57698,41175,949.1158077
37,1011370,Alabama,AL,Elmore County,Prattville,36067,32.461908,-86.457385,53597,39054,39602,495.2513173
38,1011380,Alabama,AL,Franklin County,Red Bay,35582,34.436097,-88.136515,39220,29055,33077,1046.499294
39,1011390,Alabama,AL,Covington County,Andalusia,36421,31.352397,-86.544609,39218,25895,48015,224.0261514
40,1011400,Alabama,AL,Blount County,Cleveland,35049,33.992756,-86.500325,55127,44609,39231,87.19666096
41,1011410,Alabama,AL,Mobile County,Satsuma,36572,30.854581,-88.109929,59567,52275,43545,3110.486087
42,1011420,Alabama,AL,Shelby County,Shelby,35143,33.106882,-86.585403,63758,45844,53244,262.0860412
43,1011430,Alabama,AL,Lee County,Smiths Station,36877,32.534662,-85.111341,57098,45637,48651,1326.288805
44,1011440,Alabama,AL,Franklin County,Phil Campbell,35581,34.39287,-87.729597,72297,300000,21067,20.99903996
45,1011450,Alabama,AL,Walker County,Sumiton,35148,33.749269,-87.046903,51907,39657,46146,690.5073125
46,1011460,Alabama,AL,Tallapoosa County,Tallassee,36078,32.532665,-85.891993,55849,50493,42845,502.5720951
47,1011470,Alabama,AL,Mobile County,Mobile,36619,30.581533,-88.21278,55230,47636,45298,4174.795849
48,1011480,Alabama,AL,Tuscaloosa County,Tuscaloosa,35406,33.234404,-87.5283,55815,38843,54867,21342.43715
49,1011490,Alabama,AL,Chambers County,Valley,36854,32.828953,-85.169386,49554,39263,40901,2423.153275
50,1011510,Alabama,AL,Chambers County,Camp Hill,36850,32.730078,-85.570999,71026,60438,56646,41.69719615
51,1011520,Alabama,AL,Cullman County,Cullman,35057,34.23873,-86.964075,58314,49030,50015,169.126957
52,1011530,Alabama,AL,Randolph County,Woodland,36280,33.375627,-85.397439,48217,33446,42907,68.06510839
53,101901,Alabama,AL,Chambers County,Wadley,36276,33.091627,-85.527029,14741,11398,10903,47.9984
54,101910,Alabama,AL,Pickens County,Aliceville,35442,33.123686,-88.159364,28347,20997,28311,1057.617393
55,101920,Alabama,AL,Jefferson County,Odenville,35120,33.691576,-86.503766,242857,300000,25317,1.133106667
56,101930,Alabama,AL,Lee County,Auburn,36830,32.607722,-85.489545,59694,38029,60946,13447.91383
57,101940,Alabama,AL,Mobile County,Bayou La Batre,36509,30.407586,-88.263271,50047,35147,43788,519.2748136
58,101950,Alabama,AL,Jefferson County,Bessemer,35022,33.370789,-86.971596,41239,29150,38565,7625.528576
59,101960,Alabama,AL,Greene County,Boligee,35443,32.7681,-88.028579,32777,12379,58584,196.0868348
60,101970,Alabama,AL,Marion County,Brilliant,35548,34.025353,-87.769145,33353,25776,27149,334.9517462
61,101980,Alabama,AL,Shelby County,Calera,35040,33.122319,-86.745644,65576,64695,38729,2521.942894
62,101990,Alabama,AL,Pickens County,Carrollton,35447,33.261903,-88.095071,41709,27321,44007,239.6872926
63,1021006,Alabama,AL,Autauga County,Moody,35004,33.5467968,-86.4306179,45862,32942,40674,1123.83961
64,1022676,Alabama,AL,Autauga County,Birmingham,35220,33.6691522,-86.6511913,68096,66689,38318,325.5500718
65,1021026,Alabama,AL,Autauga County,Hoover,35242,33.4073199,-86.7204009,90262,71401,66042,1559.238222
66,1021036,Alabama,AL,Autauga County,Birmingham,35242,33.4007267,-86.6925733,92018,74570,65160,1035.308758
67,1021046,Alabama,AL,Autauga County,Chelsea,35043,33.3567902,-86.6754096,78399,71839,54844,641.3010013
68,1021056,Alabama,AL,Autauga County,Maylene,35114,33.2332362,-86.8499076,85122,75896,58979,959.142978
69,102106,Alabama,AL,Autauga County,Ohatchee,36271,33.7687621,-86.0372827,66000,54091,47663,1009.159632
70,1021076,Alabama,AL,Autauga County,Talladega,35160,33.4548311,-86.0680822,38882,27264,45128,922.6311462
71,1021336,Alabama,AL,Autauga County,Brent,35034,32.9533249,-87.0043466,67555,54574,61374,173.5244742
72,1021106,Alabama,AL,Autauga County,Northport,35475,33.3231423,-87.5661153,77977,74807,59517,502.9102965
73,1021116,Alabama,AL,Autauga County,Holt,35404,33.2435354,-87.4825444,37965,29413,34880,615.7445284
74,1021126,Alabama,AL,Autauga County,Tuscaloosa,35401,33.2031136,-87.5527647,24931,12361,34393,484.2604787
75,102126,Alabama,AL,Autauga County,Clanton,35045,32.8695805,-86.6588881,56638,41768,48428,1636.79996
76,1021096,Alabama,AL,Autauga County,Dadeville,36853,32.88789,-85.6951867,48421,35722,44616,1177.677057
77,102116,Alabama,AL,Autauga County,Lanett,36863,32.8580358,-85.2066713,35951,23009,38779,1174.454588
78,1021166,Alabama,AL,Autauga County,Millry,36558,31.6256633,-88.3415656,48623,40342,41443,764.841684
79,1021176,Alabama,AL,Autauga County,Arley,35541,34.0964418,-87.2271905,49046,36818,42393,680.4676136
80,1021186,Alabama,AL,Autauga County,Prattville,36067,32.4740243,-86.4597033,58180,51927,40722,510.8444983
81,1021206,Alabama,AL,Autauga County,Marbury,36051,32.6385222,-86.5148731,59061,300000,36002,341.5219868
82,1021216,Alabama,AL,Autauga County,Perdido,36562,31.1104762,-87.7868713,55216,43407,52450,291.7810769
83,1021226,Alabama,AL,Autauga County,Bay Minette,36507,30.8969612,-87.7737368,36474,24377,31702,452.1590132
84,1021236,Alabama,AL,Autauga County,Daphne,36526,30.6478335,-87.8437739,107603,97539,63498,939.7259125
85,1021246,Alabama,AL,Autauga County,Loxley,36551,30.6114771,-87.7725676,50583,41882,37860,343.6169668
86,1021256,Alabama,AL,Autauga County,Robertsdale,36567,30.5641292,-87.6870074,69996,300000,37937,178.7583046
87,1023366,Alabama,AL,Autauga County,Dixons Mills,36736,32.0620795,-87.7277351,48416,30152,50464,293.5516591
88,1021266,Alabama,AL,Autauga County,Fairhope,36532,30.5408065,-87.891618,67864,52050,64026,547.2694024
89,1021276,Alabama,AL,Autauga County,Foley,36535,30.3802759,-87.7703177,71445,58784,51329,211.8549534
90,1021286,Alabama,AL,Autauga County,Gulf Shores,36547,30.2696285,-87.637277,65583,300000,59906,202.7281904
91,1021296,Alabama,AL,Autauga County,Foley,36535,30.3798842,-87.6650569,49212,300000,21308,345.3251216
92,1021306,Alabama,AL,Autauga County,Pensacola,32506,30.4111645,-87.4511185,57395,46769,46123,525.6204634
93,1021316,Alabama,AL,Autauga County,Clayton,36016,31.6794432,-85.5577196,56947,45615,47083,215.492279
94,1021326,Alabama,AL,Autauga County,Eufaula,36027,31.92041,-85.1757409,43222,26304,47072,285.4825837
95,1021346,Alabama,AL,Autauga County,Oneonta,35121,33.8723927,-86.4590322,34855,32407,21562,501.2246477
96,1021356,Alabama,AL,Autauga County,Cleveland,35049,33.9974352,-86.544238,56385,49459,39388,488.4481825
97,102136,Alabama,AL,Autauga County,Gilbertown,36908,31.9275928,-88.3326295,53998,39956,48887,1013.526324
98,1021366,Alabama,AL,Autauga County,Blountsville,35031,34.0336235,-86.6373178,47717,30660,46395,295.2199241
99,1021376,Alabama,AL,Autauga County,Hayden,35079,33.9036637,-86.7813122,58684,47284,39926,512.8839036
100,1021386,Alabama,AL,Autauga County,Union Springs,36089,32.0821273,-85.8274935,30765,25206,26768,298.2455171
101,1021396,Alabama,AL,Autauga County,Greenville,36037,31.7968287,-86.6541421,30564,21911,23037,278.1915077
102,1021406,Alabama,AL,Autauga County,Mckenzie,36456,31.575083,-86.6086952,36333,27877,29844,404.4778807
103,1021416,Alabama,AL,Autauga County,Anniston,36201,33.6421021,-85.8410233,27581,15743,28241,298.1823412
104,1021426,Alabama,AL,Autauga County,Anniston,36207,33.6345617,-85.7901308,55336,41259,45442,493.6837654
105,1021436,Alabama,AL,Autauga County,Oxford,36203,33.6111325,-85.8764727,54371,46871,46868,251.3530992
106,1021446,Alabama,AL,Autauga County,Anniston,36201,33.6132515,-85.9253597,49509,48881,28239,359.1819583
107,1022006,Alabama,AL,Autauga County,Eclectic,36024,32.6328834,-86.0345965,51818,50579,30368,368.4510333
108,102146,Alabama,AL,Autauga County,Jackson,36545,31.3573817,-87.8407503,40352,30601,39286,386.1353965
109,1021466,Alabama,AL,Autauga County,Jacksonville,36265,33.8369688,-85.7723498,33803,13029,35858,100.2881019
110,1021476,Alabama,AL,Autauga County,Piedmont,36272,33.8952637,-85.5983598,35282,27332,29556,214.8918525
111,1021486,Alabama,AL,Autauga County,Alexandria,36250,33.7837754,-85.9002899,72487,64034,45909,566.3941522
112,1021506,Alabama,AL,Autauga County,Lafayette,36862,32.8660782,-85.4616055,45966,300000,34017,352.1625576
113,1021516,Alabama,AL,Autauga County,Lanett,36863,32.7766468,-85.2734917,38000,30130,30948,138.058378
114,1021526,Alabama,AL,Autauga County,Valley,36854,32.8362807,-85.1725763,44019,27057,50751,263.194873
115,1021536,Alabama,AL,Autauga County,Sand Rock,35983,34.1991534,-85.7578347,57239,43170,47243,573.2144311
116,1021546,Alabama,AL,Autauga County,Spring Garden,36275,34.0861716,-85.5068892,51542,300000,60348,208.3649444
117,1021196,Alabama,AL,Autauga County,Elmore,36025,32.4473511,-86.4768097,41464,35150,30951,174.3282399
118,1021566,Alabama,AL,Autauga County,Jemison,35085,32.9910458,-86.8010803,40648,33316,32761,353.5840698
119,1021576,Alabama,AL,Autauga County,Verbena,36091,32.7592425,-86.5260002,67265,46110,59481,295.7606065
120,1021586,Alabama,AL,Autauga County,Butler,36904,32.0656633,-88.2128479,55952,40705,54619,162.5942132
121,1021596,Alabama,AL,Autauga County,Thomasville,36784,31.7929013,-87.6425154,40451,36477,28494,195.891208
122,10216,Alabama,AL,Autauga County,Robertsdale,36567,30.7200267,-87.6245437,64173,45281,57389,1048.75579
123,1021606,Alabama,AL,Autauga County,Grove Hill,36451,31.6170174,-87.6979772,50714,38228,55570,370.3983285
124,1021616,Alabama,AL,Autauga County,Jackson,36545,31.5011616,-87.8723338,40592,23781,37971,300.2500931
125,1021626,Alabama,AL,Autauga County,Ashland,36251,33.1785156,-85.7815679,44628,35064,33198,165.0631848
126,1021636,Alabama,AL,Autauga County,Heflin,36264,33.6989979,-85.5727972,31459,25199,32837,452.8846457
127,1021656,Alabama,AL,Autauga County,Kinston,36453,31.2721909,-86.1506243,46792,30746,46019,202.7933989
128,102166,Alabama,AL,Autauga County,Enterprise,36330,31.3627415,-85.8358304,88951,84211,56279,1360.078197
129,1021676,Alabama,AL,Autauga County,Sheffield,35660,34.7708294,-87.6799629,51659,42586,39138,285.4936852
130,1021686,Alabama,AL,Autauga County,Tuscumbia,35674,34.7403319,-87.7337767,46357,300000,26728,178.9959797
131,1021696,Alabama,AL,Autauga County,Muscle Shoals,35662,34.7242107,-87.6264192,72532,65185,55384,606.0447978
132,1021706,Alabama,AL,Autauga County,Leighton,35646,34.774634,-87.5053473,51460,38525,36757,475.4468867
133,1021716,Alabama,AL,Autauga County,Tuscumbia,35674,34.6686652,-87.822804,44527,38139,36681,381.4901794
134,1021726,Alabama,AL,Autauga County,Castleberry,36432,31.3411108,-87.0387457,31633,28982,24289,409.278686
135,1021736,Alabama,AL,Autauga County,Rockford,35136,32.9929287,-86.0738794,33042,23325,31099,330.2200569
136,1021746,Alabama,AL,Autauga County,Andalusia,36421,31.4420655,-86.3998913,53559,300000,24136,139.0950736
137,1021756,Alabama,AL,Autauga County,Andalusia,36421,31.3443958,-86.463852,58835,41801,49863,382.1552613
138,102176,Alabama,AL,Autauga County,Muscle Shoals,35661,34.7471222,-87.6398474,61868,56246,44831,1277.268799
139,1021766,Alabama,AL,Autauga County,Opp,36467,31.3570171,-86.2401037,46327,31463,35525,174.9599595
140,1021776,Alabama,AL,Autauga County,Opp,36467,31.1810184,-86.2787253,60141,43585,50751,273.5251273
141,1021786,Alabama,AL,Autauga County,Luverne,36049,31.7244285,-86.3608435,40683,28886,35812,374.5550754
142,1021796,Alabama,AL,Autauga County,Baileyton,35019,34.2616429,-86.5683185,61900,65528,43897,195.6872098
143,1021806,Alabama,AL,Autauga County,Vinemont,35179,34.2715006,-86.8345066,53673,39630,49847,261.8569207
144,1021816,Alabama,AL,Autauga County,Cullman,35055,34.1565069,-86.8940425,63213,300000,38851,286.024105
145,1021826,Alabama,AL,Autauga County,Cullman,35055,34.2012855,-86.8254882,37893,28850,37859,205.9554381
146,1021836,Alabama,AL,Autauga County,Cullman,35055,34.117682,-86.7963608,44858,32959,41497,431.7827107
147,1021846,Alabama,AL,Autauga County,Garden City,35070,33.9980493,-86.7870516,43726,28444,38686,267.6241033
148,1021856,Alabama,AL,Autauga County,Ft Rucker,36362,31.4097368,-85.7458071,68310,59974,38238,375.9741459
149,102186,Alabama,AL,Autauga County,Evergreen,36401,31.4626914,-86.9984985,34206,16878,39063,540.0098405
150,1021866,Alabama,AL,Autauga County,Ozark,36360,31.4833011,-85.6497139,65625,49674,60856,187.2547026
151,1021876,Alabama,AL,Autauga County,Ozark,36360,31.4149425,-85.6413488,31645,31497,20477,197.0904272
152,1021886,Alabama,AL,Autauga County,Daleville,36322,31.3021556,-85.7056542,58239,61815,49004,174.7838717
153,1021896,Alabama,AL,Autauga County,Midland City,36350,31.3374977,-85.4657416,42703,33772,31328,286.3256265
154,1021906,Alabama,AL,Autauga County,Selma,36703,32.5526588,-87.0352646,65458,45588,47564,195.7925473
155,1021916,Alabama,AL,Autauga County,Selma,36701,32.4157042,-87.0280529,23614,15982,20480,265.8210744
156,1021926,Alabama,AL,Autauga County,Orrville,36767,32.3256691,-87.2191795,30567,20489,27688,321.6892907
157,1021936,Alabama,AL,Autauga County,Selma,36701,32.3277469,-86.8942838,26582,19843,18440,208.2968997
158,1021946,Alabama,AL,Autauga County,Rainsville,36986,34.5326223,-85.8630796,47226,37458,34391,509.6531557
159,1021956,Alabama,AL,Autauga County,Fyffe,35971,34.4340842,-85.9687233,41338,40569,19063,330.9922396
160,102196,Alabama,AL,Autauga County,Andalusia,36421,31.326445,-86.507274,42170,26135,46568,569.2058781
161,1021966,Alabama,AL,Autauga County,Crossville,35962,34.2571822,-86.025488,50821,54135,34788,224.3173571
162,1021976,Alabama,AL,Autauga County,Ft Payne,35967,34.3660315,-85.6964687,46422,40662,30381,396.418269
163,1021986,Alabama,AL,Autauga County,Fort Payne,35967,34.4574952,-85.635214,57662,300000,30695,218.5254164
164,1021996,Alabama,AL,Autauga County,Deatsville,36022,32.6948549,-86.2223176,55257,50235,34870,276.0537709
165,1024026,Alabama,AL,Autauga County,Eva,35621,34.3558416,-86.7007545,48190,36191,42704,322.5283854
166,1022016,Alabama,AL,Autauga County,Wetumpka,36092,32.5201384,-86.1722101,81059,49903,70277,353.6571747
167,1022026,Alabama,AL,Autauga County,Millbrook,36054,32.4977055,-86.3883595,57221,48383,41222,1103.55193
168,1022036,Alabama,AL,Autauga County,East Brewton,36426,31.0992573,-86.9105903,42831,40855,32957,197.9898108
169,1022046,Alabama,AL,Autauga County,Brewton,36426,31.190044,-87.0635248,63662,57710,42797,241.2540416
170,1022056,Alabama,AL,Autauga County,Atmore,36504,31.0717073,-87.4897027,31072,23243,22228,341.1506385
171,102206,Alabama,AL,Autauga County,Highland Home,36041,31.949642,-86.3651124,51077,47797,40234,442.9118942
172,1022076,Alabama,AL,Autauga County,Gadsden,35901,34.0476407,-86.0342629,65909,49884,54872,179.4585532
173,1022086,Alabama,AL,Autauga County,Gadsden,35904,34.0003469,-86.0427603,32898,19505,32387,142.7611271
174,1022096,Alabama,AL,Autauga County,Gadsden,35901,33.9993815,-86.010319,42144,34726,33731,398.2223811
175,1022106,Alabama,AL,Autauga County,Gadsden,35904,34.064083,-86.0661828,31929,22709,23582,263.2276568
176,1022116,Alabama,AL,Autauga County,Rainbow City,35906,33.9640619,-86.041835,50735,39380,40435,556.2117569
177,1022136,Alabama,AL,Autauga County,Attalla,35954,34.1470152,-86.0149509,59416,46048,45916,373.381964
178,1022146,Alabama,AL,Autauga County,Gadsden,35903,34.0013946,-85.9674865,24359,22809,14966,465.1501609
179,1022156,Alabama,AL,Autauga County,Fayette,35555,33.7012455,-87.8909439,40956,28972,44086,594.3064314
180,102216,Alabama,AL,Autauga County,Vinemont,35179,34.1589207,-86.9571734,52592,38743,40883,951.4714935
181,1022166,Alabama,AL,Autauga County,Berry,35546,33.6476543,-87.6143541,54116,32380,54325,240.7529871
182,1022176,Alabama,AL,Autauga County,Russellville,35653,34.5125993,-87.7533372,78787,48388,70841,211.6603107
183,1022186,Alabama,AL,Autauga County,Vina,35593,34.4392881,-88.0399565,37300,300000,28404,215.2987919
184,1022196,Alabama,AL,Autauga County,Samson,36477,31.0847817,-86.0861751,37651,27315,36312,274.2860615
185,1022206,Alabama,AL,Autauga County,Hartford,36344,31.0696505,-85.7368633,26922,20881,23141,374.0825605
186,1022216,Alabama,AL,Autauga County,Slocomb,36375,31.0860719,-85.5280322,53395,42052,42981,317.9186427
187,1022226,Alabama,AL,Autauga County,Boligee,35443,32.6861323,-87.9472665,24591,16667,25982,158.2598062
188,1022236,Alabama,AL,Autauga County,Greensboro,36744,32.6514361,-87.6504698,43686,28110,51574,343.8895268
189,1022246,Alabama,AL,Autauga County,Fort Gaines,39851,31.6127173,-85.1367411,47014,41328,37305,312.1232037
190,1022256,Alabama,AL,Autauga County,Newton,36352,31.2347868,-85.5932271,69416,53258,59746,448.5422627
191,102226,Alabama,AL,Autauga County,Cullman,35057,34.0103921,-86.9102548,62728,53463,53245,1213.321946
192,1022266,Alabama,AL,Autauga County,Dothan,36303,31.2531951,-85.4134185,58553,45033,42907,401.4213232
193,1022276,Alabama,AL,Autauga County,Dothan,36301,31.2200822,-85.4193412,57312,45442,44993,427.5532598
194,1022286,Alabama,AL,Autauga County,Dothan,36301,31.1821874,-85.3530797,66532,53439,51825,339.2180916
195,1022296,Alabama,AL,Autauga County,Dothan,36303,31.2388804,-85.3512422,34057,24260,28608,323.2233475
196,1022306,Alabama,AL,Autauga County,Webb,36376,31.268835,-85.2759901,49175,37902,46107,358.1837788
197,1022316,Alabama,AL,Autauga County,Ashford,36312,31.1644974,-85.24685,54235,42227,43566,294.7867944
198,1022326,Alabama,AL,Autauga County,Higdon,35979,34.8513417,-85.7000137,77322,45128,78600,403.5444994
199,1022336,Alabama,AL,Autauga County,Stevenson,35772,34.8863961,-85.9296764,31235,21391,27591,336.6141727
200,1022346,Alabama,AL,Autauga County,Scottsboro,35768,34.7615314,-86.0476196,50287,42093,36400,415.2827134
201,1022356,Alabama,AL,Autauga County,Scottsboro,35768,34.6633617,-86.0358725,42148,32599,35347,550.2067912
202,102236,Alabama,AL,Autauga County,Ozark,36360,31.3971308,-85.6615834,51326,42647,33653,866.0044054
203,1022366,Alabama,AL,Autauga County,Section,35771,34.5699175,-85.9716149,40859,30827,37250,401.3885281
204,1022376,Alabama,AL,Autauga County,Birmingham,35212,33.5428209,-86.752434,38145,28550,35605,218.3195664
205,1022386,Alabama,AL,Autauga County,Birmingham,35212,33.5442405,-86.7749128,30222,28006,20606,274.7912296
206,1022396,Alabama,AL,Autauga County,Birmingham,35214,33.5423337,-86.8765161,18832,16684,11537,88.33146667
207,1022406,Alabama,AL,Autauga County,Birmingham,35204,33.5261497,-86.8351469,29489,29052,15838,230.3303555
208,1022416,Alabama,AL,Autauga County,Birmingham,35212,33.553205,-86.7429805,29126,23435,18632,186.4629386
209,1022426,Alabama,AL,Autauga County,Birmingham,35212,33.5521302,-86.727676,43931,37499,31846,317.5569546
210,1022436,Alabama,AL,Autauga County,Birmingham,35202,33.5260747,-86.7830317,25675,12611,26789,242.2482416
211,1022446,Alabama,AL,Autauga County,Birmingham,35204,33.5132498,-86.8300472,30849,26300,28077,297.1736166
212,1022456,Alabama,AL,Autauga County,Birmingham,35218,33.5059585,-86.8745531,68538,43322,63552,141.8603456
213,102246,Alabama,AL,Autauga County,Selma,36701,32.4484185,-87.0509577,36740,25083,33276,1098.668639
214,1022466,Alabama,AL,Autauga County,Birmingham,35218,33.5052228,-86.9014846,33091,21929,33637,246.5934083
215,1022476,Alabama,AL,Autauga County,Birmingham,35208,33.4847637,-86.8981396,34319,30412,30305,212.4532229
216,1022486,Alabama,AL,Autauga County,Birmingham,35211,33.4859451,-86.8696926,30472,14309,46679,229.4506292
217,1022496,Alabama,AL,Autauga County,Birmingham,35204,33.5007439,-86.8270718,21753,15614,17714,311.3578801
218,1022506,Alabama,AL,Autauga County,Birmingham,35222,33.5108808,-86.7744712,51831,34771,48141,408.8145886
219,1022516,Alabama,AL,Autauga County,Birmingham,35205,33.4866689,-86.8173266,28327,23929,18744,290.2571993
220,1022526,Alabama,AL,Autauga County,Birmingham,35211,33.4806707,-86.8508677,28613,19517,37732,465.2139292
221,1022536,Alabama,AL,Autauga County,Birmingham,35213,33.5206824,-86.7260226,46565,37262,45317,614.1621046
222,1022546,Alabama,AL,Autauga County,Homewood,35209,33.4775177,-86.8149403,28720,26633,21802,439.4187826
223,1022556,Alabama,AL,Autauga County,Birmingham,35215,33.6222102,-86.6790265,45016,46009,26218,174.0246755
224,102256,Alabama,AL,Autauga County,Selma,36701,32.3660372,-87.026282,37361,25986,38026,487.1812276
225,1022566,Alabama,AL,Autauga County,Hueytown,35023,33.4525316,-87.0036566,52337,37992,49456,234.1529568
226,1022576,Alabama,AL,Autauga County,Bessemer,35020,33.4009536,-86.9632652,47506,46585,32547,137.3623734
227,1022586,Alabama,AL,Autauga County,Bessemer,35020,33.3813794,-86.9602115,21283,18646,12737,267.6587333
228,1022596,Alabama,AL,Autauga County,Fairfield,35064,33.4817033,-86.9143356,29768,27182,22343,205.0598293
229,10226,Alabama,AL,Autauga County,Silverhill,36576,30.5345606,-87.7548736,53701,44265,42398,2036.528282
230,1022606,Alabama,AL,Autauga County,Homewood,35209,33.475966,-86.7786575,142440,123075,72551,52.72730913
231,1022616,Alabama,AL,Autauga County,Mountain Brook,35213,33.4947146,-86.7636042,155368,300000,78717,122.8554401
232,1022626,Alabama,AL,Autauga County,Mountain Brook,35213,33.5124499,-86.7174833,128504,104533,85800,252.3152398
233,1022636,Alabama,AL,Autauga County,Tarrant,35217,33.5796117,-86.7705036,18813,17037,13371,135.3254667
234,1022646,Alabama,AL,Autauga County,Birmingham,35215,33.6373216,-86.6374915,66500,300000,28213,208.3891287
235,1022656,Alabama,AL,Autauga County,Trussville,35173,33.6062979,-86.5848428,70449,63764,60898,164.2842864
236,102266,Alabama,AL,Autauga County,Ft Payne,35967,34.3594477,-85.8011776,45113,31818,45884,961.087959
237,1022666,Alabama,AL,Autauga County,Trussville,35173,33.7258147,-86.5900686,80117,70762,52938,505.3290304
238,1022066,Alabama,AL,Autauga County,Gadsden,35901,34.0321863,-85.9730613,36536,23911,38627,166.795205
239,1022686,Alabama,AL,Autauga County,Kimberly,35091,33.7826093,-86.7857118,80998,70230,58272,345.7161677
240,1022696,Alabama,AL,Autauga County,Mount Olive,35117,33.6819146,-86.9203958,74951,65918,49663,478.005006
241,1022716,Alabama,AL,Autauga County,Birmingham,35215,33.6453495,-86.6958458,46171,42204,35015,337.1836541
242,1022726,Alabama,AL,Autauga County,Birmingham,35214,33.5983142,-86.8788573,50662,40369,43229,574.3325793
243,1022706,Alabama,AL,Autauga County,Gardendale,35071,33.6758356,-86.7966575,51319,42982,33344,495.7749046
244,1022746,Alabama,AL,Autauga County,Pleasant Grove,35127,33.4820282,-86.9862506,90511,73076,57912,336.8369051
245,1022756,Alabama,AL,Autauga County,Adamsville,35005,33.5764455,-86.9673879,53383,47460,34172,362.3226205
246,1022766,Alabama,AL,Autauga County,Birmingham,35206,33.5657458,-86.6703475,40281,24797,43647,388.2573215
247,1022776,Alabama,AL,Autauga County,Vestavia Hills,35243,33.4582894,-86.7384274,95153,85431,61817,243.9484253
248,1022786,Alabama,AL,Autauga County,Vestavia Hills,35216,33.4205046,-86.7859249,79077,39607,80856,399.7885504
249,1022796,Alabama,AL,Autauga County,Birmingham,35243,33.4278537,-86.7318809,65070,53548,37505,551.5138951
250,1022806,Alabama,AL,Autauga County,Homewood,35209,33.4535392,-86.795517,81011,57091,75071,521.3097434
251,1022816,Alabama,AL,Autauga County,Birmingham,35221,33.4480924,-86.8892598,31871,21950,27401,100.1948213
252,1022826,Alabama,AL,Autauga County,Fairfield,35064,33.4589571,-86.936987,60913,300000,35897,270.1248897
253,1022836,Alabama,AL,Autauga County,Fairfield,35064,33.4753834,-86.9481309,52520,35063,48743,408.144229
254,1022846,Alabama,AL,Autauga County,Bessemer,35023,33.3897822,-87.181015,77131,300000,63377,173.458966
255,1022856,Alabama,AL,Autauga County,Mccalla,35111,33.2874081,-87.0030024,90324,88210,53865,651.0513084
256,102286,Alabama,AL,Autauga County,Prattville,36066,32.449186,-86.3730508,54523,41056,42264,1006.302217
257,1022866,Alabama,AL,Autauga County,Bessemer,35020,33.3512428,-86.9599146,46829,300000,28279,297.1941543
258,1022876,Alabama,AL,Autauga County,Hoover,35226,33.4013174,-86.8279736,128915,300000,84788,203.2241924
259,1022126,Alabama,AL,Autauga County,Glencoe,35905,33.918413,-85.9183325,55639,300000,47971,624.0137358
260,1022896,Alabama,AL,Autauga County,Vernon,35592,33.766138,-88.0979273,48082,14259,58691,154.5205186
261,1022906,Alabama,AL,Autauga County,Sheffield,35660,34.784265,-87.6863587,19898,11362,28768,459.8986679
262,1022916,Alabama,AL,Autauga County,Florence,35630,34.8103953,-87.6709633,28404,25315,18845,198.9589663
263,1022926,Alabama,AL,Autauga County,Florence,35630,34.8330772,-87.6519647,45871,40925,26949,310.4918251
264,1022936,Alabama,AL,Autauga County,Florence,35630,34.8422452,-87.7079565,66925,57489,39019,714.9638053
265,1022946,Alabama,AL,Autauga County,Florence,35633,34.9480952,-87.7848039,58520,53758,32706,398.0816041
266,1022956,Alabama,AL,Autauga County,Florence,35634,34.9295054,-87.63545,65375,49876,45702,421.3534649
267,1022966,Alabama,AL,Autauga County,Killen,35645,34.8504713,-87.4793577,85950,62159,60426,345.011829
268,1022976,Alabama,AL,Autauga County,Rogersville,35652,34.8122679,-87.3043693,53050,39930,53937,438.0785686
269,1022986,Alabama,AL,Autauga County,Town Creek,35672,34.5666247,-87.418451,49453,30636,36144,251.9273348
270,1022736,Alabama,AL,Autauga County,Graysville,35073,33.6350049,-86.9946308,54763,47866,30405,358.6528705
271,1023006,Alabama,AL,Autauga County,Mt Hope,35651,34.4039525,-87.4562458,49474,34122,46748,289.5220491
272,1023016,Alabama,AL,Autauga County,Auburn,36830,32.5848885,-85.4806812,82357,71002,63502,323.6048138
273,1023026,Alabama,AL,Autauga County,Auburn,36830,32.5955157,-85.4933037,34498,23556,36377,197.2570532
274,1023036,Alabama,AL,Autauga County,Auburn,36830,32.6207235,-85.468112,44489,300000,29855,335.9549521
275,1023046,Alabama,AL,Autauga County,Opelika,36801,32.7027529,-85.3847912,71907,300000,48918,180.1938568
276,1023056,Alabama,AL,Autauga County,Opelika,36801,32.6314047,-85.3521047,60292,300000,43525,465.5199085
277,1023066,Alabama,AL,Autauga County,Salem,36874,32.5985333,-85.1564072,56743,51524,41271,689.8308291
278,1023076,Alabama,AL,Autauga County,Smiths Station,36877,32.5103593,-85.118585,42186,29698,47342,257.0592238
279,1023086,Alabama,AL,Autauga County,Athens,35613,34.8681621,-86.8659585,84102,78280,48448,192.2215796
280,1023096,Alabama,AL,Autauga County,Elkmont,35620,34.9326041,-86.9769708,52624,47441,40626,264.1201373
281,1023106,Alabama,AL,Autauga County,Athens,35611,34.8025463,-86.9899793,43849,30742,37222,583.2143143
282,1023116,Alabama,AL,Autauga County,Athens,35613,34.7766286,-86.8419932,80593,60539,57881,464.9753908
283,1023126,Alabama,AL,Autauga County,Madison,35758,34.6474493,-86.8534466,101327,85287,71138,750.5195825
284,1023136,Alabama,AL,Autauga County,Fort Deposit,36032,32.0180975,-86.6009099,63560,52781,51846,111.1607508
285,1023146,Alabama,AL,Autauga County,Tuskegee Institute,36088,32.4628483,-85.7815478,50328,36023,42007,365.5757267
286,1023156,Alabama,AL,Autauga County,Shorter,36075,32.3575498,-85.8947986,43995,35431,36578,315.9842836
287,1023436,Alabama,AL,Autauga County,Guntersville,35976,34.3505036,-86.2555798,55796,36870,49992,173.9928369
288,1023166,Alabama,AL,Autauga County,Huntsville,35810,34.7832877,-86.5893471,47407,33659,47264,349.989237
289,1023186,Alabama,AL,Autauga County,Huntsville,35810,34.7552435,-86.6030659,57474,42104,43712,483.4172277
290,1023196,Alabama,AL,Autauga County,Huntsville,35811,34.7422454,-86.5731181,53441,30532,51596,268.6863725
291,1023206,Alabama,AL,Autauga County,Huntsville,35806,34.7227438,-86.6787178,49178,42703,35945,998.1001425
292,1023216,Alabama,AL,Autauga County,Huntsville,35801,34.7351055,-86.5436849,93252,88860,53694,160.6224391
293,1023226,Alabama,AL,Autauga County,Huntsville,35816,34.7175673,-86.6067012,23273,20863,16217,490.4837608
294,1023236,Alabama,AL,Autauga County,Huntsville,35805,34.6875967,-86.6143778,37494,22507,45377,459.0727038
295,1023246,Alabama,AL,Autauga County,Huntsville,35502,34.6915398,-86.5750836,77007,300000,46110,212.5227513
296,1023256,Alabama,AL,Autauga County,Huntsville,35803,34.6050882,-86.5713234,79876,75064,48133,741.4440946
297,102326,Alabama,AL,Autauga County,Fayette,35555,33.8171345,-87.6438256,48781,39117,40468,424.679176
298,1023266,Alabama,AL,Autauga County,Huntsville,35803,34.6127548,-86.5329573,83331,75474,45271,223.1847952
299,1023276,Alabama,AL,Autauga County,New Market,35761,34.917897,-86.3494794,64802,63617,40696,387.4433471
300,1023286,Alabama,AL,Autauga County,New Market,35761,34.9504742,-86.5026248,56419,48140,40933,563.5821841
301,1023296,Alabama,AL,Autauga County,Madison,35758,34.762748,-86.7550507,75746,64911,48878,1079.711832
302,1023306,Alabama,AL,Autauga County,Harvest,35749,34.7912574,-86.7652283,80729,69225,55309,396.5081168
303,1023316,Alabama,AL,Autauga County,Huntsville,35811,34.7623828,-86.4951024,58474,44095,40051,210.4218114
304,1023326,Alabama,AL,Autauga County,Madison,35758,34.7373139,-86.7646588,134609,300000,67906,173.7187742
305,1023336,Alabama,AL,Autauga County,Madison,35758,34.6854417,-86.7645134,79792,56372,67825,389.4461558
306,1023346,Alabama,AL,Autauga County,Owens Cross Roads,35763,34.5605701,-86.4793214,65716,49914,49851,662.0729416
307,1023356,Alabama,AL,Autauga County,Linden,36748,32.2755299,-87.8084087,32346,20988,33541,170.3279928
308,102336,Alabama,AL,Autauga County,Red Bay,35582,34.5152306,-88.0797797,36970,30452,29147,979.6669955
309,1021146,Alabama,AL,Autauga County,Holt,35404,33.2184585,-87.495102,53301,40174,43882,954.5518482
310,1023376,Alabama,AL,Autauga County,Linden,36748,34.2081076,-87.721786,47449,35339,37198,297.1586074
311,1023386,Alabama,AL,Autauga County,Hamilton,35570,34.1982117,-87.949109,50049,32935,57865,346.2553643
312,1023396,Alabama,AL,Autauga County,Guin,35563,33.9867017,-87.9021266,31017,15096,35883,271.1526946
313,1023406,Alabama,AL,Autauga County,Grant,35747,34.5246512,-86.2046333,55987,38909,44664,463.3839041
314,1023416,Alabama,AL,Autauga County,Union Grove,35175,34.4178011,-86.463898,62677,51925,44841,230.4232026
315,1023426,Alabama,AL,Autauga County,Arab,35016,34.3314599,-86.4419583,58478,300000,38954,286.4929449
316,1023446,Alabama,AL,Autauga County,Albertville,35951,34.2684564,-86.1499051,61634,300000,46009,254.6280173
317,1023456,Alabama,AL,Autauga County,Albertville,35950,34.2558623,-86.2776418,32765,20717,29509,288.4854653
318,102346,Alabama,AL,Autauga County,Eutaw,35462,32.9585581,-88.0510053,30928,20746,31024,433.1127876
319,1023466,Alabama,AL,Autauga County,Boaz,35957,34.211084,-86.1353109,77080,60413,61358,162.9248121
320,1023476,Alabama,AL,Autauga County,Mobile,36617,30.711631,-88.0763917,23700,16804,25449,337.3094266
321,1023486,Alabama,AL,Autauga County,Mobile,36617,30.7063416,-88.093464,40489,34201,36346,419.4206951
322,1023496,Alabama,AL,Autauga County,Mobile,36604,30.6779766,-88.060697,46053,32056,45729,180.8902691
323,1023506,Alabama,AL,Autauga County,Mobile,36605,30.668198,-88.0769678,36931,34077,25961,177.8232053
324,1022886,Alabama,AL,Autauga County,Hoover,35226,33.3822004,-86.8552686,115904,103436,66951,405.7373852
325,1023526,Alabama,AL,Autauga County,Mobile,36605,30.6489528,-88.0983469,50132,29059,58102,260.6573092
326,1023536,Alabama,AL,Autauga County,Mobile,36606,30.6798293,-88.0933073,70996,68650,47507,261.1202951
327,1023546,Alabama,AL,Autauga County,Mobile,36606,30.6825772,-88.114479,42432,300000,38313,304.0279745
328,1023556,Alabama,AL,Autauga County,Mobile,36693,30.6453523,-88.1427778,57689,54763,42667,323.4529665
329,102356,Alabama,AL,Autauga County,Abbeville,36310,31.564689,-85.2591239,40518,25216,39126,861.9988868
330,1023566,Alabama,AL,Autauga County,Mobile,36609,30.6610364,-88.1416111,35468,14533,41837,570.5563583
331,1023576,Alabama,AL,Autauga County,Mobile,36618,30.7140322,-88.1460227,49698,43324,43669,814.5363486
332,1023586,Alabama,AL,Autauga County,Mobile,36608,30.6858694,-88.1588421,108483,300000,78388,254.1584313
333,1023596,Alabama,AL,Autauga County,Mobile,36608,30.673824,-88.2030668,58556,42972,51439,1025.259132
334,10236,Alabama,AL,Autauga County,Orange Beach,36561,30.3005856,-87.5417985,86000,66868,64338,870.7881814
335,1023606,Alabama,AL,Autauga County,Mobile,36693,30.6267741,-88.1989549,64660,56165,41770,536.7075345
336,1023616,Alabama,AL,Autauga County,Mobile,36617,30.721504,-88.1042551,23955,20077,20213,233.618733
337,1023626,Alabama,AL,Autauga County,Whistler,36613,30.7503663,-88.1166709,24218,16243,23567,299.3390932
338,1023636,Alabama,AL,Autauga County,Saraland,36571,30.8245364,-88.0784836,43803,300000,28268,240.0613463
339,1023646,Alabama,AL,Autauga County,Mount Vernon,36560,31.0707011,-88.0654398,48595,41530,38304,312.8861076
340,1023656,Alabama,AL,Autauga County,Wilmer,36587,30.8819066,-88.2158005,58182,48215,45160,394.6197301
341,102366,Alabama,AL,Autauga County,Dothan,36303,31.2357975,-85.4197082,75861,55836,69018,554.7059801
342,1023666,Alabama,AL,Autauga County,Semmes,36575,30.7536706,-88.2468888,66912,55680,49569,539.1669383
343,1023686,Alabama,AL,Autauga County,Grand Bay,36541,30.5565858,-88.3414467,35313,25328,25644,466.7845561
344,1023696,Alabama,AL,Autauga County,Irvington,36544,30.5154023,-88.2381941,51099,39571,34541,279.7247622
345,1023706,Alabama,AL,Autauga County,Mobile,36619,30.5839887,-88.1877044,48721,46383,37861,479.5383784
346,1023716,Alabama,AL,Autauga County,Mobile,36605,30.4884587,-88.13197,63538,49255,56525,551.3083627
347,1023726,Alabama,AL,Autauga County,Mobile,36605,30.6302101,-88.069879,33457,21104,34577,361.0137245
348,1023746,Alabama,AL,Autauga County,Monroeville,36461,31.5314913,-87.468258,65025,48748,51291,263.6920072
349,1023176,Alabama,AL,Autauga County,Huntsville,35810,34.7679304,-86.6346783,38058,30776,26164,378.8946101
350,102376,Alabama,AL,Autauga County,Dothan,36303,31.277139,-85.3841365,41374,27130,43691,1204.937945
351,1023766,Alabama,AL,Autauga County,Montgomery,36107,32.3972125,-86.2846517,32307,33114,22159,219.1585743
352,1023776,Alabama,AL,Autauga County,Montgmomery,36109,32.3635327,-86.308144,52473,51602,39175,163.7577937
353,1023796,Alabama,AL,Autauga County,Montgomery,36106,32.3612257,-86.2834307,51585,39275,43379,302.1230365
354,1023806,Alabama,AL,Autauga County,Montgomery,36109,32.3732999,-86.2551197,47899,300000,34528,444.8259158
355,1023816,Alabama,AL,Autauga County,Montgomery,36111,32.3408795,-86.271527,43562,31912,41835,438.815694
356,1023826,Alabama,AL,Autauga County,Montgomery,36105,32.3356125,-86.3078025,33530,29294,19200,150.5639592
357,1023836,Alabama,AL,Autauga County,Montgomery,36108,32.341301,-86.3351156,24669,22640,19811,131.3241888
358,1023846,Alabama,AL,Autauga County,Montgomery,36109,32.3747656,-86.2294064,102838,96944,54029,98.29091717
359,102156,Alabama,AL,Autauga County,Jack,36346,31.5375844,-85.8984006,47550,35327,39518,518.1484343
360,102386,Alabama,AL,Autauga County,Princeton,35766,34.8787834,-86.2279366,45068,36873,39979,564.8473636
361,1023866,Alabama,AL,Autauga County,Montgomery,36116,32.3061941,-86.2681672,49593,54777,24162,190.8903164
362,1023876,Alabama,AL,Autauga County,Montgomery,36110,32.4484229,-86.2496859,69004,300000,41886,71.69654575
363,1023886,Alabama,AL,Autauga County,Montgomery,36109,32.4098492,-86.2260841,38679,28065,36734,386.7187015
364,1023896,Alabama,AL,Autauga County,Montgomery,36117,32.353685,-86.16183,135664,125792,75085,353.8357316
365,1023906,Alabama,AL,Autauga County,Montgomery,36117,32.3578287,-86.2043556,96002,300000,46932,162.0868733
366,1023916,Alabama,AL,Autauga County,Pike Road,36064,32.3507685,-86.0979514,99568,99257,51364,459.6592632
367,1023926,Alabama,AL,Autauga County,Montgomery,36116,32.3289802,-86.2081876,87238,300000,48659,365.410911
368,1023936,Alabama,AL,Autauga County,Montgomery,36117,32.3092917,-86.1857537,86272,73460,56852,703.3268418
369,1023946,Alabama,AL,Autauga County,Hope Hull,36043,32.198998,-86.3443832,48871,21249,51652,225.086628
370,1023956,Alabama,AL,Autauga County,Montgomery,36108,32.3175536,-86.3782976,55287,36619,50965,186.7582349
371,102396,Alabama,AL,Autauga County,Birmingham,35217,33.5632457,-86.7640472,31849,23740,27884,901.7896717
372,1023966,Alabama,AL,Autauga County,Decatur,35601,34.5712507,-86.9706149,65126,49578,55681,376.9475547
373,1023976,Alabama,AL,Autauga County,Decatur,35601,34.5819489,-86.9944642,44728,30715,32247,425.3547597
374,1023986,Alabama,AL,Autauga County,Decatur,35603,34.5167777,-86.9711349,50662,41789,38782,270.7571858
375,1023996,Alabama,AL,Autauga County,Decatur,35601,34.5494071,-86.9778507,45554,31079,45011,361.7193225
376,1024006,Alabama,AL,Autauga County,Hartselle,35640,34.4937594,-86.9171854,78301,57511,63529,481.5452964
377,1024016,Alabama,AL,Autauga County,Somerville,35670,34.4805794,-86.7691975,45167,41084,30061,623.8500895
378,1024036,Alabama,AL,Autauga County,Marion,36756,32.7209723,-87.3956331,47317,300000,32269,221.6618975
379,1024046,Alabama,AL,Autauga County,Gordo,35466,33.3973636,-87.8929221,52298,29581,54192,344.4062452
380,1024056,Alabama,AL,Autauga County,Carrollton,35447,33.2779491,-88.1679491,26820,15337,42456,355.1220386
381,102406,Alabama,AL,Autauga County,Birmingham,35206,33.5591908,-86.7233518,31502,23017,27647,1211.353679
382,1024066,Alabama,AL,Autauga County,Troy,36081,31.8646421,-86.103939,55440,39745,48155,352.7228625
383,1024076,Alabama,AL,Autauga County,Troy,36081,31.7469327,-85.9138355,38677,30309,34105,261.0588752
384,1024086,Alabama,AL,Autauga County,Wedowee,36278,33.4264515,-85.5226826,44124,40935,29087,401.1802206
385,1024096,Alabama,AL,Autauga County,Roanoke,36274,33.2143355,-85.3592685,56777,49691,42143,374.9822761
386,1024106,Alabama,AL,Autauga County,Phenix City,36867,32.4742814,-85.0069988,26882,23200,19629,267.6211618
387,1024116,Alabama,AL,Autauga County,Phenix City,36870,32.4815891,-85.0367586,47470,34531,41869,624.1994449
388,1024126,Alabama,AL,Autauga County,Phenix City,36868,32.436776,-85.0748664,30365,24661,29060,330.6470399
389,1024136,Alabama,AL,Autauga County,Phenix City,36868,32.2688008,-85.3491716,33523,22642,36256,332.7133937
390,1024146,Alabama,AL,Autauga County,Moody,35004,33.6147327,-86.403975,63023,300000,41817,614.9083972
391,1024156,Alabama,AL,Autauga County,Pell City,35128,33.5644016,-86.2404965,65548,54496,51644,891.026384
392,102416,Alabama,AL,Autauga County,Birmingham,35204,33.5122579,-86.8441439,24534,15353,26832,895.8475898
393,1024166,Alabama,AL,Autauga County,Ashville,35953,33.8613957,-86.1939665,55128,44569,47377,302.5141411
394,1021456,Alabama,AL,Autauga County,Jacksonville,36265,33.7661796,-85.7864612,46650,41809,29011,382.8876521
395,1024186,Alabama,AL,Autauga County,Hoover,35242,33.4410183,-86.678391,60199,52591,39421,255.590821
396,1024196,Alabama,AL,Autauga County,Birmingham,35242,33.4506559,-86.6285645,133935,123216,82192,212.7497007
397,1024206,Alabama,AL,Autauga County,Hoover,35242,33.3868168,-86.7579464,114188,300000,46984,141.6175113
398,1024216,Alabama,AL,Autauga County,Pelham,35124,33.3206714,-86.7920551,61447,300000,33919,551.2759431
399,1024226,Alabama,AL,Autauga County,Alabaster,35007,33.2535295,-86.8084054,47515,38790,35105,132.2292147
400,1024236,Alabama,AL,Autauga County,Birmingham,35242,33.3800273,-86.7161945,124681,111108,61531,114.1183323
401,1024246,Alabama,AL,Autauga County,Maylene,35114,33.2309343,-86.9001761,64499,61078,48922,333.043778
402,1024256,Alabama,AL,Autauga County,Montevallo,35115,33.1051532,-86.8316133,67471,61618,58096,324.7065011
403,102426,Alabama,AL,Autauga County,Birmingham,35208,33.498996,-86.8647606,27306,20635,24140,529.0055844
404,1024266,Alabama,AL,Autauga County,Alabaster,35007,33.1840157,-86.8452865,81035,300000,48137,176.1559371
405,1024276,Alabama,AL,Autauga County,Alabaster,35007,33.2328201,-86.7308277,114805,110344,67381,453.599454
406,1024286,Alabama,AL,Autauga County,Wilsonville,35186,33.2789886,-86.500775,67015,54838,56605,522.1379374
407,1024306,Alabama,AL,Autauga County,Oxford,36203,33.5387971,-85.8620266,74941,59257,51277,333.2479551
408,1024316,Alabama,AL,Autauga County,Talladega,35160,33.4863993,-86.2098235,45623,48211,34985,360.7796963
409,1024326,Alabama,AL,Autauga County,Talladega,35160,33.4317569,-86.0994543,30518,300000,18938,203.1642276
410,1024336,Alabama,AL,Autauga County,Childersburg,35044,33.2597282,-86.3714709,20842,13928,18610,227.7970519
411,1023516,Alabama,AL,Autauga County,Mobile,36605,30.6020753,-88.0987938,38383,30813,36375,534.3788386
412,1024356,Alabama,AL,Autauga County,Sylacauga,35150,33.145858,-86.250449,42395,38497,34664,249.9247523
413,102436,Alabama,AL,Autauga County,Birmingham,35204,33.4945909,-86.834764,20724,13490,21047,638.6258063
414,1024366,Alabama,AL,Autauga County,Alexander City,35010,32.9486832,-85.9841238,40286,31306,39643,461.2890428
415,1024386,Alabama,AL,Autauga County,Dadeville,36853,32.7193296,-85.799826,74831,65949,50599,219.3528545
416,1024396,Alabama,AL,Autauga County,Tuscaloosa,35406,33.2801674,-87.4861527,126456,300000,64426,167.8186019
417,1024406,Alabama,AL,Autauga County,Northport,35475,33.2870635,-87.577686,77645,75235,44939,512.229234
418,1024416,Alabama,AL,Autauga County,Buhl,35446,33.2005768,-87.7377348,51913,45486,32933,198.7602715
419,1024426,Alabama,AL,Autauga County,Tuscaloosa,35406,33.2690466,-87.5203662,125421,107411,75182,262.9486675
420,1024436,Alabama,AL,Autauga County,Brookwood,35444,33.3241425,-87.3313594,54986,43725,44263,601.6783133
421,1024446,Alabama,AL,Autauga County,Cottondale,35453,33.1420294,-87.3825437,58765,51483,35724,419.0446436
422,1024456,Alabama,AL,Autauga County,Cottondale,35453,33.1930468,-87.4548608,48158,39959,28523,325.1892163
423,102446,Alabama,AL,Autauga County,Birmingham,35235,33.596713,-86.6763136,53410,44414,41526,1451.54413
424,1024466,Alabama,AL,Autauga County,Tuscaloosa,35405,33.1932756,-87.5832845,31061,24484,31856,339.6137688
425,1024476,Alabama,AL,Autauga County,Tuscaloosa,35401,33.1887632,-87.5423908,28049,25211,21071,238.9948
426,1023676,Alabama,AL,Autauga County,Mobile,36695,30.6628949,-88.213545,98744,92467,69504,616.8640959
427,1024496,Alabama,AL,Autauga County,Tuscaloosa,35405,33.1762981,-87.5397897,29516,30584,18341,733.1892568
428,1024516,Alabama,AL,Autauga County,Jasper,35503,33.8786756,-87.3033145,69796,54429,49212,327.1825658
429,1024526,Alabama,AL,Autauga County,Jasper,35504,33.8698205,-87.18725,48437,35721,39976,467.9554644
430,1023856,Alabama,AL,Autauga County,Montgomery,36108,32.3515219,-86.360195,48406,31702,51309,285.8924057
431,1024546,Alabama,AL,Autauga County,Oakman,35579,33.666598,-87.3615093,49334,32579,42545,366.81512
432,1024556,Alabama,AL,Autauga County,Cordova,35550,33.7269845,-87.1886153,51500,46017,40239,196.4252986
433,102456,Alabama,AL,Autauga County,Bessemer,35020,33.3914623,-86.9487605,35707,24378,32636,750.2262188
434,1024566,Alabama,AL,Autauga County,Sipsey,35584,33.8481176,-87.0365448,45265,31524,44482,315.692253
435,1024576,Alabama,AL,Autauga County,Leroy,36548,31.4174426,-88.0504262,45381,28999,34110,228.0600445
436,1024586,Alabama,AL,Autauga County,Camden,36726,32.012374,-87.2921068,28710,18681,35235,623.4972583
437,1024596,Alabama,AL,Autauga County,Pine Apple,36768,31.8936393,-87.1386589,31636,23205,25782,252.2529193
438,10246,Alabama,AL,Autauga County,Louisville,36048,31.9222753,-85.4498309,36939,27636,33907,870.2062436
439,1024606,Alabama,AL,Autauga County,Double Springs,35553,34.1268793,-87.3831356,39763,36936,22304,233.2617125
440,1024616,Alabama,AL,Autauga County,Haleyville,35565,34.1936265,-87.5492688,36736,20436,42108,168.2563661
441,102466,Alabama,AL,Autauga County,Homewood,35209,33.4613607,-86.8005817,82907,64476,66179,610.0227619
442,102476,Alabama,AL,Autauga County,Leeds,35094,33.5565279,-86.5621484,42947,32289,42160,558.9018911
443,1023786,Alabama,AL,Autauga County,Montgomery,36108,32.3613688,-86.3289447,14023,11494,10200,376.8198166
444,102516,Alabama,AL,Autauga County,Irondale,35210,33.5445586,-86.6466397,62219,44282,57897,872.3655141
445,102526,Alabama,AL,Autauga County,Birmingham,35243,33.4361371,-86.7561579,140732,133231,83317,567.7841102
446,102536,Alabama,AL,Autauga County,Midfield,35228,33.4412981,-86.9424457,30586,27480,24560,1077.255591
447,102546,Alabama,AL,Autauga County,Bessemer,35022,33.3338629,-86.9127674,96563,91182,59474,1511.205712
448,1021156,Alabama,AL,Autauga County,Nauvoo,35578,33.9445989,-87.4646876,40072,29226,37412,1103.88352
449,102566,Alabama,AL,Autauga County,Florence,35630,34.8120233,-87.624424,40060,28315,38509,1147.468632
450,102576,Alabama,AL,Autauga County,Florence,35634,34.9616163,-87.5143563,59353,47811,44923,1258.893161
451,1021016,Alabama,AL,Autauga County,Odenville,35120,33.7171728,-86.3824822,62222,56867,43036,1666.540389
452,102596,Alabama,AL,Autauga County,Auburn,36830,32.598547,-85.5163458,40521,24321,41454,287.2403426
453,102606,Alabama,AL,Autauga County,Opelika,36801,32.6330378,-85.3853644,30665,22207,31217,1075.211962
454,102616,Alabama,AL,Autauga County,Opelika,36804,32.4970769,-85.4025028,55067,39086,47067,986.2200586
455,102626,Alabama,AL,Autauga County,Athens,35611,34.8220771,-86.9813141,42963,35092,34814,1182.092074
456,102636,Alabama,AL,Autauga County,Hayneville,36040,32.0922981,-86.7776904,26622,17354,27609,592.1728401
457,102646,Alabama,AL,Autauga County,Tuskegee,36083,32.426005,-85.6917046,36412,28544,32135,473.6703042
458,1021066,Alabama,AL,Autauga County,Panola,35477,32.863881,-88.2623312,34064,28981,28466,438.0792492
459,10266,Alabama,AL,Autauga County,Remlap,35133,33.8405764,-86.6350183,54667,46471,36483,2028.184293
460,102666,Alabama,AL,Autauga County,Huntsville,35816,34.7415924,-86.637675,36376,25216,34869,1313.145306
461,102676,Alabama,AL,Autauga County,Huntsville,35801,34.7119242,-86.5826594,79587,66704,54796,558.4082219
462,102686,Alabama,AL,Autauga County,Huntsville,35802,34.6536811,-86.5262716,94067,80758,59507,558.6366095
463,102696,Alabama,AL,Autauga County,Huntsville,35811,34.782744,-86.4057661,77787,69213,49812,1011.037833
464,102706,Alabama,AL,Autauga County,Huntsville,35806,34.7908679,-86.7292721,116068,109549,62384,673.2055075
465,102716,Alabama,AL,Autauga County,Madison,35758,34.7176388,-86.7667595,97765,93741,63278,1367.420812
466,102736,Alabama,AL,Autauga County,Winfield,35594,33.9577593,-87.7518284,56133,38275,54098,1633.505762
467,1021086,Alabama,AL,Autauga County,Sylacauga,35150,33.1485144,-86.2131565,40948,31044,36118,1265.891659
468,102756,Alabama,AL,Autauga County,Mobile,36603,30.6993359,-88.0591706,22203,15085,19617,460.3414244
469,10276,Alabama,AL,Autauga County,Georgiana,36033,31.7163243,-86.7533225,52208,42042,41432,477.3432974
470,102766,Alabama,AL,Autauga County,Mobile,36603,30.6868736,-88.060218,55238,42454,48099,441.5738229
471,102786,Alabama,AL,Autauga County,Mobile,36607,30.6950269,-88.1140906,28217,20142,24349,740.7289713
472,102796,Alabama,AL,Autauga County,Mobile,36608,30.6992655,-88.1362176,101118,73032,76595,715.2588153
473,102816,Alabama,AL,Autauga County,Mobile,36693,30.623508,-88.1765802,71008,62620,53428,1492.200125
474,102826,Alabama,AL,Autauga County,Chickasaw,36611,30.7618781,-88.0886165,26337,20116,21663,431.9821376
475,102836,Alabama,AL,Autauga County,Semmes,36575,30.78278,-88.2128056,48430,44787,38003,630.4737793
476,1022996,Alabama,AL,Autauga County,Trinity,35673,34.57105,-87.2129882,50558,35481,47100,348.7475269
477,102856,Alabama,AL,Autauga County,Mobile,36619,30.570406,-88.2179902,43982,32163,37414,1884.001702
478,10286,Alabama,AL,Autauga County,Anniston,36207,33.6448084,-85.796557,59980,40580,59602,1027.31969
479,102866,Alabama,AL,Autauga County,Prichard,36610,30.7432485,-88.081799,25820,19718,25437,497.7129785
480,1021136,Alabama,AL,Autauga County,Tuscaloosa,35404,33.1807268,-87.4937929,60252,45803,55310,2029.908687
481,102896,Alabama,AL,Autauga County,Montgomery,36111,32.3356893,-86.290787,54451,38772,52957,973.9265753
482,102916,Alabama,AL,Autauga County,Montgomery,36117,32.3716245,-86.2001367,46649,34723,44631,1411.892127
483,102926,Alabama,AL,Autauga County,Montgmomery,36109,32.3084355,-86.2231566,30257,24891,22041,1986.376626
484,102936,Alabama,AL,Autauga County,Ramer,36069,32.0637351,-86.0722109,46816,32820,39885,469.146841
485,102946,Alabama,AL,Autauga County,Decatur,35601,34.6096797,-87.0198689,23165,14550,23456,814.4432829
486,102956,Alabama,AL,Autauga County,Decatur,35603,34.5540918,-87.010172,74890,63155,59315,854.0993606
487,1023756,Alabama,AL,Autauga County,Uriah,36480,31.3250054,-87.5991274,33553,22348,28976,314.0610535
488,102976,Alabama,AL,Autauga County,Aliceville,35442,33.143676,-88.1111873,34635,23175,34742,1556.618898
489,102986,Alabama,AL,Autauga County,Woodland,36280,33.3674567,-85.3379448,47083,41874,40811,775.9038201
490,102996,Alabama,AL,Autauga County,Phenix City,36869,32.4323882,-85.0346206,39045,30117,32894,2329.721995
491,201360,Alaska,AK,Kusilvak Census Area,Alakanuk,99554,62.71116,-164.644712,40008,33347,32543,125.2962561
492,201370,Alaska,AK,Denali Borough,Anderson,99744,64.308281,-149.163187,93374,300000,43837,26.53114411
493,201380,Alaska,AK,North Slope Borough,Barrow,99723,71.2535,-156.800072,94285,78124,70054,614.4649339
494,201390,Alaska,AK,Northwest Arctic Borough,Buckland,99727,65.975886,-161.138732,63175,59795,43206,68.76313942
495,201400,Alaska,AK,Kusilvak Census Area,Chevak,99563,61.531066,-165.597199,51011,41718,37096,144.5942907
496,201410,Alaska,AK,Bethel Census Area,Chuathbaluk,99557,61.575539,-159.24707,48313,44853,38154,21.7988164
497,201420,Alaska,AK,Valdez-Cordova Census Area,Copper Center,99573,61.984549,-145.354343,57085,38571,51848,70.66270037
498,201430,Alaska,AK,Dillingham Census Area,Dillingham,99576,59.060472,-158.532223,79728,62878,60850,391.309229
499,201440,Alaska,AK,Fairbanks North Star Borough,Eielson Afb,99702,64.6733,-147.059464,68267,56650,41914,452.0460154
500,201450,Alaska,AK,Aleutians East Borough,False Pass,99583,54.872441,-163.334268,71796,300000,48301,11.59953597
501,201460,Alaska,AK,Kenai Peninsula Borough,Homer,99603,59.894505,-151.007044,76885,59124,54835,67.8296125
502,201470,Alaska,AK,Fairbanks North Star Borough,Fairbanks,99709,64.951999,-147.970602,97802,300000,65155,580.2908623
503,201480,Alaska,AK,Denali Borough,Healy,99743,63.959632,-148.970842,95667,91135,57327,166.8191166
504,201490,Alaska,AK,Yukon-Koyukuk Census Area,Hughes,99745,66.044722,-154.237175,47031,33763,37726,12.06633599
505,201500,Alaska,AK,North Slope Borough,Kaktovik,99747,70.121285,-143.627752,62545,45810,43599,31.1989244
506,201510,Alaska,AK,Northwest Arctic Borough,Kiana,99749,66.971322,-160.437625,58463,41209,52139,69.99660614
507,201520,Alaska,AK,Kodiak Island Borough,Kodiak,99615,57.792391,-152.404536,74363,60544,56650,1094.918618
508,201530,Alaska,AK,Bethel Census Area,Kwethluk,99621,60.793216,-161.43139,55482,44147,43722,114.530263
509,201550,Alaska,AK,Bethel Census Area,Mekoryuk,99630,60.370781,-166.266749,43471,24491,37909,49.29886862
510,201560,Alaska,AK,Haines Borough,Haines,99827,59.151183,-135.356493,101864,300000,35736,24.39769589
511,201570,Alaska,AK,Yukon-Koyukuk Census Area,Allakaket,99720,66.538603,-152.621292,33847,27223,21247,14.53283465
512,201580,Alaska,AK,Northwest Arctic Borough,Noatak,99761,67.589497,-163.010332,65682,51784,49294,54.99796057
513,201590,Alaska,AK,Kusilvak Census Area,Sheldon Point,99666,62.506535,-164.900384,58004,300000,45624,27.69938996
514,201600,Alaska,AK,Petersburg Borough,Petersburg,99833,56.754283,-132.873808,79191,66964,59802,604.9999905
515,201610,Alaska,AK,Matanuska-Susitna Borough,Anchorage,99501,61.355597,-150.16935,77110,84804,54957,37.79753595
516,201620,Alaska,AK,Prince of Wales-Hyder Census Area,Port Protection,99950,56.331881,-133.60642,39794,26943,55547,38.26361333
517,201630,Alaska,AK,Aleutians West Census Area,St. George,99591,56.592794,-169.624378,67102,300000,41868,11.79961198
518,201640,Alaska,AK,Northwest Arctic Borough,Selawik,99770,66.590751,-160.001206,55786,43243,40619,108.0289107
519,201650,Alaska,AK,Skagway Municipality,Skagway,99840,59.46436,-135.275151,81352,69886,49197,174.6890738
520,201660,Alaska,AK,Yukon-Koyukuk Census Area,Stevens Village,99774,66.023707,-149.080314,20652,17126,19643,7.332888886
521,201670,Alaska,AK,Yukon-Koyukuk Census Area,Tanana,99777,65.184555,-152.054643,51237,45813,35996,71.26401588
522,201690,Alaska,AK,Nome Census Area,Unalakleet,99684,63.895578,-160.798136,73951,64415,53933,123.0609662
523,201700,Alaska,AK,Southeast Fairbanks Census Area,Delta Junction,99737,64.152838,-145.906385,242857,300000,25317,0.866493333
524,202107,Alaska,AK,Aleutians East Borough,Ketchikan,99901,55.4499378,-131.1066847,97685,86630,64617,546.0031679
525,202117,Alaska,AK,Aleutians East Borough,Egegik,99579,58.2050652,-156.7051884,62733,50708,52096,301.7860472
526,202347,Alaska,AK,Aleutians East Borough,Anchorage,99507,61.1594375,-149.8193627,81726,65511,54440,157.0234859
527,202137,Alaska,AK,Aleutians East Borough,Wasilla,99654,61.5861668,-149.3235509,95014,86266,63620,732.6474422
528,202157,Alaska,AK,Aleutians East Borough,Tok,99780,63.6472192,-142.8271144,54967,45144,46848,478.9414298
529,202167,Alaska,AK,Aleutians East Borough,Takotna,99675,62.8600955,-157.0581667,53751,40060,45019,227.120571
530,20217,Alaska,AK,Aleutians East Borough,Anchorage,99508,61.2167015,-149.7927444,64869,53765,47295,1375.814526
531,202177,Alaska,AK,Aleutians East Borough,Chugiak,99567,61.3488245,-149.3997957,133300,300000,60207,72.76073984
532,202187,Alaska,AK,Aleutians East Borough,Eagle River,99577,61.3098218,-149.5060219,109312,105321,65670,160.2236655
533,202197,Alaska,AK,Aleutians East Borough,Anchorage,99501,61.2295599,-149.8930372,46024,40752,34333,450.2549115
534,202207,Alaska,AK,Aleutians East Borough,Anchorage,99504,61.2170818,-149.7672141,62940,54003,49175,313.519324
535,202217,Alaska,AK,Aleutians East Borough,Anchorage,99504,61.2233721,-149.7233267,77951,300000,57464,208.4249086
536,202227,Alaska,AK,Aleutians East Borough,Anchorage,99508,61.2030942,-149.7923741,77947,300000,55262,196.4935312
537,202237,Alaska,AK,Aleutians East Borough,Anchorage,99501,61.2102868,-149.8759839,62693,31880,72735,443.8733977
538,202247,Alaska,AK,Aleutians East Borough,Anchorage,99517,61.2011597,-149.9490164,128395,300000,72292,169.122132
539,202257,Alaska,AK,Aleutians East Borough,Anchorage,99508,61.1918104,-149.8532543,117755,300000,66123,159.4925122
540,202267,Alaska,AK,Aleutians East Borough,Anchorage,99508,61.1910849,-149.803004,83006,73337,57379,175.2209225
541,20227,Alaska,AK,Aleutians East Borough,Anchorage,99508,61.2032461,-149.824025,92042,84964,53722,636.8614387
542,202277,Alaska,AK,Aleutians East Borough,Anchorage,99504,61.2022012,-149.7644057,97885,300000,47596,38.82900267
543,202287,Alaska,AK,Aleutians East Borough,Anchorage,99507,61.1738815,-149.848285,89946,83403,43459,126.3854664
544,202297,Alaska,AK,Aleutians East Borough,Anchorage,99503,61.1839061,-149.8805455,71733,59794,60241,145.5270906
545,202307,Alaska,AK,Aleutians East Borough,Anchorage,99517,61.1879482,-149.9226985,58345,300000,41274,287.9910244
546,202317,Alaska,AK,Aleutians East Borough,Anchorage,99502,61.1648107,-150.1778033,115266,115283,81014,202.681254
547,202327,Alaska,AK,Aleutians East Borough,Anchorage,99502,61.1478499,-149.9252509,95568,79940,55248,209.312407
548,202337,Alaska,AK,Aleutians East Borough,Anchorage,99518,61.1593799,-149.8999659,86400,84689,40302,191.5858005
549,202357,Alaska,AK,Aleutians East Borough,Anchorage,99515,61.122781,-149.9633763,92426,300000,47964,155.6572533
550,202367,Alaska,AK,Aleutians East Borough,Anchorage,99507,61.130389,-149.8453664,82394,300000,44169,539.0669786
551,202477,Alaska,AK,Aleutians East Borough,Hoonah,99829,58.0735321,-135.513003,65020,54682,50103,198.691827
552,202377,Alaska,AK,Aleutians East Borough,Anchorage,99516,61.1015721,-149.8226304,144635,138010,79563,131.6483398
553,202387,Alaska,AK,Aleutians East Borough,Girdwood,99587,60.9724621,-149.0849841,94928,300000,65593,100.2272054
554,202397,Alaska,AK,Aleutians East Borough,Bethel,99559,60.8141554,-161.8508097,90822,72540,71288,125.127534
555,202407,Alaska,AK,Aleutians East Borough,Dillingham,99576,58.9684384,-158.6734216,92923,72645,65232,170.8233068
556,202417,Alaska,AK,Aleutians East Borough,Fairbanks,99701,64.8278726,-147.7246662,69802,45653,59865,223.6232476
557,202427,Alaska,AK,Aleutians East Borough,Fairbanks,99709,64.8542939,-147.7832776,61158,300000,40810,251.1575772
558,202437,Alaska,AK,Aleutians East Borough,Fairbanks,99701,64.8042687,-147.8115419,96348,66143,79400,152.2601608
559,202447,Alaska,AK,Aleutians East Borough,Fairbanks,99709,64.9027074,-147.7951782,84823,300000,51136,69.66105828
560,202457,Alaska,AK,Aleutians East Borough,North Pole,99705,64.7752542,-147.2484609,98668,82163,53448,352.674202
561,202467,Alaska,AK,Aleutians East Borough,Fairbanks,99701,64.9637292,-146.5953029,72074,70536,33143,78.92383688
562,202147,Alaska,AK,Aleutians East Borough,Kiana,99749,67.0050655,-160.0210864,58546,45462,45306,626.1723707
563,202487,Alaska,AK,Aleutians East Borough,Juneau,99801,58.3972,-134.5719857,92293,78817,74866,242.8802479
564,202497,Alaska,AK,Aleutians East Borough,Juneau,99801,58.4343023,-133.8811887,81155,67934,62739,375.8431036
565,202507,Alaska,AK,Aleutians East Borough,Moose Pass,99631,60.6153549,-149.3727833,89805,75180,67992,196.5877332
566,202517,Alaska,AK,Aleutians East Borough,Kenai,99611,60.5838565,-151.3261799,66103,60259,51609,227.9226892
567,202527,Alaska,AK,Aleutians East Borough,Nikolaevsk,99556,59.8999551,-151.5703879,56071,42495,48452,410.5196364
568,202537,Alaska,AK,Aleutians East Borough,Fritz Creek,99603,59.8068599,-151.1233016,82980,71183,63488,153.7259093
569,202547,Alaska,AK,Aleutians East Borough,Ketchikan,99901,55.3715161,-131.6695939,75033,64332,53249,355.0178312
570,202557,Alaska,AK,Aleutians East Borough,Larsen Bay,99624,57.5020153,-153.5635123,84545,80106,44616,118.2557798
571,202567,Alaska,AK,Aleutians East Borough,Saint Mary's,99658,62.2830603,-163.1909034,49429,40341,38499,321.4214562
572,20257,Alaska,AK,Aleutians East Borough,Anchorage,99516,61.0532891,-149.7028074,159063,300000,77818,462.8983807
573,202577,Alaska,AK,Aleutians East Borough,Palmer,99645,61.7170925,-149.1964285,89437,79780,57917,351.3457638
574,202597,Alaska,AK,Aleutians East Borough,Wasilla,99645,61.661322,-149.4872195,78371,78819,52411,261.1735832
575,202607,Alaska,AK,Aleutians East Borough,Wasilla,99654,61.6021527,-149.3433531,93393,77579,59873,246.5828952
576,202617,Alaska,AK,Aleutians East Borough,Palmer,99645,61.5337269,-148.9877062,96211,83667,60656,164.5894982
577,202627,Alaska,AK,Aleutians East Borough,Nome,99762,64.6079069,-165.453872,96042,86030,64223,114.4936215
578,202127,Alaska,AK,Aleutians East Borough,Wasilla,99687,61.5191219,-149.6716836,84692,82973,51487,937.7795344
579,202647,Alaska,AK,Aleutians East Borough,Petersburg,99833,57.1124581,-133.0085979,77876,66727,56577,169.991177
580,202657,Alaska,AK,Aleutians East Borough,Metlakatla,99926,55.138352,-131.4704235,69964,48663,58581,173.8266189
581,202667,Alaska,AK,Aleutians East Borough,Sitka,99835,57.0451454,-135.3522511,80041,59519,65235,134.4930459
582,20267,Alaska,AK,Aleutians East Borough,Fairbanks,99701,64.8328149,-147.7589866,57814,41445,51258,856.9309842
583,202677,Alaska,AK,Aleutians East Borough,Copper Center,99573,62.034479,-143.9221674,50328,32182,44831,146.3615067
584,202687,Alaska,AK,Aleutians East Borough,Tatitlek,99677,60.6553471,-147.4091896,98618,87924,73901,155.9251971
585,202697,Alaska,AK,Aleutians East Borough,Huslia,99746,65.5705181,-155.6736579,40950,29945,34933,174.0287918
586,2027,Alaska,AK,Aleutians East Borough,Eagle River,99577,61.3286309,-149.5379974,100792,97257,64444,833.9966896
587,20277,Alaska,AK,Aleutians East Borough,Fairbanks,99701,64.8899711,-147.5765503,99901,300000,62946,1018.036975
588,20297,Alaska,AK,Aleutians East Borough,Sterling,99672,60.2648699,-150.6105623,81749,70749,59378,1187.916269
589,401539,Arizona,AZ,Pima County,Sells,85634,31.902547,-111.780387,58579,11622,79050,16.89862
590,401549,Arizona,AZ,Pinal County,Eloy,85131,32.750787,-111.670454,51765,43020,38386,2371.638295
591,401559,Arizona,AZ,Mohave County,Littlefield,86432,36.907098,-113.936313,56286,45147,39008,387.1852275
592,401569,Arizona,AZ,Cochise County,Bowie,85605,32.324831,-109.484454,35045,32050,24950,115.9938888
593,401579,Arizona,AZ,Coconino County,Tuba City,86045,35.853193,-111.428585,41489,34601,35089,222.0226247
594,401589,Arizona,AZ,Pima County,Tucson,85739,32.484902,-110.899633,61934,50113,48909,1720.196113
595,401599,Arizona,AZ,Navajo County,Chinle,86503,36.491359,-110.049912,27046,16974,35416,158.9900164
596,401609,Arizona,AZ,Mohave County,Kingman,86401,35.220358,-114.0723,104815,300000,77396,15.26573151
597,401619,Arizona,AZ,Gila County,Globe,85501,33.430941,-110.746483,112500,300000,9129,1.799711988
598,401629,Arizona,AZ,Gila County,Globe,85501,33.35838,-110.659327,172052,226983,110818,4.865693333
599,401639,Arizona,AZ,Yuma County,Yuma,85364,32.709354,-114.678223,41087,39081,20446,286.4886894
600,401649,Arizona,AZ,Gila County,Globe,85501,33.35121,-110.705266,98549,300000,44082,22.69889996
601,401659,Arizona,AZ,Navajo County,Polacca,86042,35.831663,-110.368892,39442,24081,37496,310.4160831
602,401669,Arizona,AZ,Coconino County,Flagstaff,86001,35.255416,-111.725274,122937,112343,77704,115.1901038
603,401679,Arizona,AZ,Maricopa County,Gilbert,85295,33.310345,-111.743121,94418,84020,59877,30298.76837
604,401699,Arizona,AZ,Gila County,Winkelman,85292,32.994887,-110.779872,39634,38040,26441,176.0625759
605,401709,Arizona,AZ,Navajo County,Holbrook,86025,35.40925,-110.114439,34976,29443,26478,46.99813998
606,401719,Arizona,AZ,Navajo County,Kayenta,86033,36.717169,-110.260459,40895,30296,37669,872.0433312
607,401729,Arizona,AZ,Navajo County,Kykotsmovi,86039,35.810245,-110.656849,38972,33678,38997,200.7583978
608,401739,Arizona,AZ,Mohave County,Littlefield,86432,36.866273,-113.935838,74202,300000,22725,30.99839994
609,401749,Arizona,AZ,Pima County,Sells,85634,32.170295,-112.134197,25541,21778,18256,37.33126665
610,401759,Arizona,AZ,Mohave County,Dolan Springs,86441,35.953156,-114.078871,30685,23431,24873,293.3591088
611,401769,Arizona,AZ,Mohave County,Mohave Valley,86440,34.944901,-114.590643,49684,66140,37623,5.1325831
612,401779,Arizona,AZ,Santa Cruz County,Temp,85282,31.362463,-110.933538,41648,27728,42696,4626.239237
613,401789,Arizona,AZ,Gila County,Payson,85541,34.180335,-111.343012,53625,300000,30475,46.86595907
614,401799,Arizona,AZ,Gila County,Payson,85547,34.243893,-111.31884,52431,43324,39968,4512.761163
615,401809,Arizona,AZ,Graham County,Pima,85543,32.88156,-109.843764,55575,46917,43979,492.5137699
616,401819,Arizona,AZ,Cochise County,Douglas,85608,31.360894,-109.566052,23530,16730,19264,559.6088863
617,401829,Arizona,AZ,Yuma County,Somerton,85350,32.594385,-114.655084,25662,23397,16677,145.1611832
618,401839,Arizona,AZ,Gila County,Tonto Basin,85553,33.657393,-111.127051,39704,300000,19480,17.99973332
619,401849,Arizona,AZ,Pima County,Green Valley,85614,31.932739,-110.96536,77054,68043,46382,4133.453182
620,401859,Arizona,AZ,Pinal County,San Manuel,85631,32.60603,-110.647113,51403,43469,34231,878.4652135
621,401869,Arizona,AZ,Navajo County,Second Mesa,86043,35.851387,-110.49799,38280,31960,33786,218.3228064
622,401879,Arizona,AZ,Cochise County,Sierra Vista,85635,31.56541,-110.314508,69646,58812,53035,9219.334449
623,401889,Arizona,AZ,Apache County,Eagar,85925,34.171921,-109.306892,45103,30067,45297,487.6458507
624,401899,Arizona,AZ,Maricopa County,Surprise,85374,33.671383,-112.357187,55736,44609,43301,9755.448109
625,401909,Arizona,AZ,Yuma County,Roll,85347,32.700435,-113.961785,48130,32498,43416,200.2629463
626,401919,Arizona,AZ,Coconino County,Winslow,86047,35.430955,-110.84315,30660,21095,30296,67.59633284
627,401929,Arizona,AZ,Pinal County,Superior,85273,33.347668,-110.999724,72207,75337,45449,29.53019053
628,401939,Arizona,AZ,Coconino County,Page,86040,35.954964,-112.120196,54968,37010,43508,94.09733194
629,401949,Arizona,AZ,Yavapai County,Cottonwood,86326,34.711987,-111.993997,56440,45415,47395,3041.415146
630,401959,Arizona,AZ,Yuma County,Wellton,85356,32.623189,-114.145234,38080,300000,22076,99.03202012
631,401969,Arizona,AZ,Pima County,Ajo,85321,32.258973,-112.730634,56385,28392,61535,36.3296466
632,401979,Arizona,AZ,Mohave County,Mohave Valley,86440,34.927669,-114.626595,39957,32358,33956,335.9201948
633,401989,Arizona,AZ,Yavapai County,Yarnell,85362,34.228248,-112.763062,36012,27616,29117,257.0917827
634,4021003,Arizona,AZ,Apache County,Gilbert,85298,33.2367275,-111.7386475,119002,115886,63446,1039.04075
635,4021013,Arizona,AZ,Apache County,Queen Creek,85242,33.2416507,-111.656567,130704,120267,78849,340.438997
636,4021023,Arizona,AZ,Apache County,Fountain Hills,85268,33.6461625,-111.6598954,50747,44904,41945,195.4893284
637,402103,Arizona,AZ,Apache County,Morenci,85540,32.9929864,-109.3323888,76501,71850,40733,522.2298489
638,4021033,Arizona,AZ,Apache County,Dolan Springs,86441,35.5697848,-114.1715227,29436,20190,24496,818.4987718
639,4021043,Arizona,AZ,Apache County,Bullhead City,86442,35.1099928,-114.5845892,40865,34773,32335,1405.106964
640,4021053,Arizona,AZ,Apache County,Bullhead City,86439,35.0150255,-114.5844264,55714,41559,48563,935.8720164
641,4023913,Arizona,AZ,Apache County,Anthem,85086,33.8390081,-112.0893313,125842,108632,83902,217.3168351
642,4021073,Arizona,AZ,Apache County,Pinon,86510,36.291957,-110.2982373,30932,17769,32581,254.5521178
643,4021083,Arizona,AZ,Apache County,Shonto,86054,36.6840509,-110.6114408,40332,26019,40116,471.303665
644,4021363,Arizona,AZ,Apache County,Apache Junction,85220,33.4113667,-111.5637657,38860,32748,32374,1356.743302
645,4021113,Arizona,AZ,Apache County,Tucson,85701,32.212867,-110.9771682,50620,39574,44800,250.0542329
646,4021133,Arizona,AZ,Apache County,Tucson,85713,32.1877205,-110.9946412,36960,32166,28408,1254.03278
647,4021453,Arizona,AZ,Apache County,Bagdad,86321,34.5733844,-113.1438803,86089,76057,49278,329.610438
648,4021163,Arizona,AZ,Apache County,Tucson,85711,32.1995907,-110.8622294,41993,35025,27251,763.5365137
649,4021173,Arizona,AZ,Apache County,Tucson,85706,32.1413278,-110.9855152,42669,33686,34282,643.1437853
650,4021183,Arizona,AZ,Apache County,Tucson,85715,32.2569005,-110.8325423,65342,52748,52286,1172.741415
651,4021193,Arizona,AZ,Apache County,Tucson,85748,32.2135906,-110.7812274,83575,73008,51092,720.2887582
652,4021203,Arizona,AZ,Apache County,Tucson,85710,32.2840302,-110.781441,111983,96439,68589,199.9806452
653,4021213,Arizona,AZ,Apache County,Vail,85641,32.0974037,-110.7770346,85403,74637,49021,414.5028431
654,4021223,Arizona,AZ,Apache County,Corona,85641,31.8894564,-110.6151633,71769,61033,47264,1095.745979
655,402123,Arizona,AZ,Apache County,Sun City,85373,33.6751574,-112.3386479,52042,44224,35620,1199.165301
656,4021233,Arizona,AZ,Apache County,Green Valley,85622,31.7740178,-110.9544319,81394,74925,52594,167.2913589
657,402143,Arizona,AZ,Apache County,Buckeye,85322,33.5484373,-112.6462541,84867,73437,56036,943.6758614
658,4021253,Arizona,AZ,Apache County,Sahuarita,85629,31.9837468,-110.9797993,85037,74059,48336,1344.176218
659,4021263,Arizona,AZ,Apache County,Tucson,85745,32.2430537,-111.0296803,78314,73148,45564,628.4322349
660,4021273,Arizona,AZ,Apache County,Tucson,85743,32.3480444,-111.087263,69154,68188,34745,503.8048305
661,4021283,Arizona,AZ,Apache County,Tucson,85705,32.2866043,-110.9671486,31177,19089,38325,1214.739947
662,40213,Arizona,AZ,Apache County,St Johns,85936,34.6970843,-109.5067714,47256,37626,37955,1306.585072
663,4024223,Arizona,AZ,Apache County,Chandler,85226,33.2980703,-111.9194466,106494,300000,49056,139.055225
664,4021313,Arizona,AZ,Apache County,Tucson,85755,32.4623892,-110.9936469,117775,108682,69734,621.2521606
665,4021323,Arizona,AZ,Apache County,Tucson,85718,32.2915746,-110.9081823,103565,78185,85555,706.7638289
666,402133,Arizona,AZ,Apache County,Surprise,85387,33.6762281,-112.4163657,77691,63984,54414,424.7817808
667,4021333,Arizona,AZ,Apache County,Tucson,85750,32.2898394,-110.8482194,102169,78342,76414,515.0382267
668,4021343,Arizona,AZ,Apache County,Tucson,85701,32.055257,-111.0853003,38145,34199,27646,457.013654
669,4021353,Arizona,AZ,Apache County,Florence,85132,33.1544205,-111.5390565,61313,54360,36434,787.8971004
670,4021373,Arizona,AZ,Apache County,Oracle,85623,32.5506259,-110.8592663,80766,72414,52480,1106.669261
671,4021383,Arizona,AZ,Apache County,Casa Grande,85222,32.9309254,-111.7740229,55664,48531,40420,1653.592992
672,4021393,Arizona,AZ,Apache County,Casa Grande,85222,32.8645508,-111.6698953,70255,60392,43918,583.5099765
673,4021403,Arizona,AZ,Apache County,Mesa,85204,33.0553653,-112.0192483,79505,68778,48156,1126.104486
674,4021533,Arizona,AZ,Apache County,Fort Defiance,86504,35.9506832,-109.1461416,32392,19821,37773,209.1160461
675,4023723,Arizona,AZ,Apache County,Gilbert,85233,33.3654099,-111.8263386,41678,41689,19868,682.7842002
676,4021433,Arizona,AZ,Apache County,Prescott,86305,34.6268166,-112.4437036,65618,44963,61616,1477.817747
677,4022393,Arizona,AZ,Apache County,Glendale,85301,33.5130874,-112.1947392,47013,48065,25868,239.0217908
678,4021463,Arizona,AZ,Apache County,Sedona,86351,34.7817127,-111.732393,75600,64754,55414,716.135404
679,4021473,Arizona,AZ,Apache County,Yuma,85364,32.7188039,-114.6285925,36499,27053,32020,917.6991422
680,4021483,Arizona,AZ,Apache County,Yuma,85364,32.6921404,-114.6324654,55147,40948,45748,1282.884084
681,4021503,Arizona,AZ,Apache County,Yuma,85364,32.654422,-114.5197785,64052,51614,49438,1556.656565
682,4021513,Arizona,AZ,Apache County,San Luis,85349,32.4924714,-114.7770437,39969,28252,30676,927.2393718
683,402153,Arizona,AZ,Apache County,El Mirage,85335,33.6196477,-112.3144574,61099,53380,39726,416.1480619
684,4021243,Arizona,AZ,Apache County,Green Valley,85614,31.8736368,-110.9930679,42482,32855,38024,1371.998133
685,4021543,Arizona,AZ,Apache County,Chinle,86503,36.1534278,-109.6853411,46921,42521,40835,344.6741715
686,4021553,Arizona,AZ,Apache County,Ganado,86505,35.6217526,-109.3752943,26791,15983,27873,123.0906784
687,4021563,Arizona,AZ,Apache County,Ft. Defiance,86504,35.706181,-109.1164586,47873,51174,35759,255.2115867
688,4021573,Arizona,AZ,Apache County,Eagar,85925,34.3155138,-109.2663052,53868,41484,47517,279.7880717
689,4021583,Arizona,AZ,Apache County,Bowie,85605,32.1897342,-109.3988452,44590,34075,38616,260.887675
690,4021593,Arizona,AZ,Apache County,Benson,85602,31.9582989,-110.3045946,48145,43357,27442,364.2579012
691,4021613,Arizona,AZ,Apache County,Tucson,85712,31.3644435,-109.4911125,23169,16703,21503,238.3154221
692,4021623,Arizona,AZ,Apache County,Douglas,85607,31.3389448,-109.5503177,32972,27002,23007,150.2288103
693,402163,Arizona,AZ,Apache County,Litchfield Park,85340,33.4834524,-112.3250332,74173,57086,57721,1190.315399
694,4021633,Arizona,AZ,Apache County,Hereford,85615,31.4646753,-110.0397849,49029,36335,41353,256.4928493
695,4021653,Arizona,AZ,Apache County,Sierra Vista,85635,31.5595678,-110.2836664,53945,43561,37474,516.8527095
696,4021663,Arizona,AZ,Apache County,Sierra Vista,85635,31.5741205,-110.1933358,63928,52430,54657,642.3378945
697,4021673,Arizona,AZ,Apache County,Sierra Vista,85650,31.4788388,-110.2729133,134124,300000,71109,160.5202917
698,4021683,Arizona,AZ,Apache County,Hereford,85615,31.3912782,-110.262153,59741,51034,53604,297.2222711
699,4021693,Arizona,AZ,Apache County,Flagstaff,86004,35.2174762,-111.6056385,92626,83296,63912,194.3194476
700,4021703,Arizona,AZ,Apache County,Flagstaff,86004,35.1821881,-111.5554509,142894,300000,77839,234.6487407
701,4021713,Arizona,AZ,Apache County,Page,86040,35.1557054,-111.6291383,85839,69709,72086,744.0459935
702,4021723,Arizona,AZ,Apache County,Flagstaff,86001,35.1881088,-111.6816587,29332,18557,30244,383.3763559
703,402173,Arizona,AZ,Apache County,Goodyear,85338,33.413794,-112.3997841,57663,50646,31240,430.8514583
704,4021733,Arizona,AZ,Apache County,Winslow,86047,34.8019504,-111.1794127,74749,300000,44849,255.8214208
705,4021743,Arizona,AZ,Apache County,Page,86040,35.2369299,-112.203011,59056,43430,50708,189.7920082
706,4021753,Arizona,AZ,Apache County,Flagstaff,86001,35.5776471,-111.7624697,64934,54176,64537,169.1802874
707,4021763,Arizona,AZ,Apache County,Kaibeto,86053,36.5452151,-111.3261199,68234,50891,55681,267.2212042
708,4021773,Arizona,AZ,Apache County,Tuba City,86045,36.1799997,-111.5543782,49567,31114,48510,284.5196539
709,4021783,Arizona,AZ,Apache County,Pine,85544,34.3038561,-111.5611326,64766,63662,43945,190.9184119
710,4021793,Arizona,AZ,Apache County,Payson,85541,34.0798698,-111.4300563,43664,47662,28467,171.0577533
711,4021803,Arizona,AZ,Apache County,Miami,85539,33.452695,-110.9371613,45393,38206,43960,144.9924527
712,4021813,Arizona,AZ,Apache County,Globe,85501,33.4137405,-110.765075,70289,300000,36180,128.2933416
713,4021823,Arizona,AZ,Apache County,San Carlos,85550,33.4885424,-110.4235097,51691,39374,58755,141.9280026
714,402183,Arizona,AZ,Apache County,Surprise,85379,33.6165068,-112.3678926,86779,73302,60232,951.942321
715,4021833,Arizona,AZ,Apache County,Thatcher,85552,32.8638683,-109.7544601,64852,300000,53186,137.8969619
716,4021843,Arizona,AZ,Apache County,Safford,85546,32.8141246,-109.7192896,52828,43128,42504,494.3738013
717,4021853,Arizona,AZ,Apache County,Phoenix,85009,32.8913628,-109.5331779,68506,51503,56207,154.4265202
718,4021863,Arizona,AZ,Apache County,Thatcher,85552,32.7537823,-109.1416554,33315,26187,32126,212.2930481
719,4021873,Arizona,AZ,Apache County,Ehrenberg,85334,33.6525942,-113.9501387,38049,31113,33246,297.2536169
720,4021883,Arizona,AZ,Apache County,Parker,85344,33.8749524,-114.3598873,27839,21700,23814,388.4163538
721,4021893,Arizona,AZ,Apache County,Cave Creek,85327,33.8175437,-111.9168671,76076,49697,64282,500.0477809
722,4021903,Arizona,AZ,Apache County,Surprise,85378,33.6577414,-112.3366887,47361,37501,33904,553.2486679
723,4021913,Arizona,AZ,Apache County,Surprise,85374,33.6746155,-112.3659376,66648,59411,44669,534.3419817
724,4021923,Arizona,AZ,Apache County,Morristown,85342,33.8962909,-112.5112619,67211,56588,44977,400.5817533
725,402193,Arizona,AZ,Apache County,Surprise,85379,33.5589526,-112.4016176,89512,74885,59007,805.1480992
726,4021933,Arizona,AZ,Apache County,Surprise,85387,33.6878485,-112.3802373,55960,41234,45283,739.643679
727,4021943,Arizona,AZ,Apache County,Surprise,85388,33.66087,-112.42696,100613,300000,78864,170.1919838
728,4021953,Arizona,AZ,Apache County,Surprise,85374,33.6527323,-112.4037293,61390,300000,36733,259.3558417
729,4021963,Arizona,AZ,Apache County,Surprise,85374,33.6452498,-112.3672143,51719,45707,39375,411.9186331
730,4021983,Arizona,AZ,Apache County,Buckeye,85326,33.4267096,-112.5645555,64123,300000,37144,291.3881886
731,4021993,Arizona,AZ,Apache County,Buckeye,85326,33.3846295,-112.5165303,69209,300000,31366,413.7109263
732,4022003,Arizona,AZ,Apache County,Surprise,85378,33.6318859,-112.3316377,35059,24258,28792,694.0291417
733,4022013,Arizona,AZ,Apache County,El Mirage,85335,33.6017334,-112.3203136,62587,300000,45128,146.3289086
734,4022023,Arizona,AZ,Apache County,Phoenix,85018,33.464555,-112.4021325,70546,59022,44830,294.9487402
735,402203,Arizona,AZ,Apache County,Peoria,85382,33.6294009,-112.2828515,45443,37353,32701,1689.202262
736,4022033,Arizona,AZ,Apache County,Litchfield Park,85340,33.501347,-112.3261418,75997,300000,46858,471.0452044
737,4022043,Arizona,AZ,Apache County,Litchfield Park,85340,33.4866763,-112.4005215,74862,60510,57531,499.5680315
738,4022053,Arizona,AZ,Apache County,Goodyear,85338,33.4426194,-112.3979731,57318,300000,29297,780.3092805
739,4022063,Arizona,AZ,Apache County,Glendale,85308,33.6315958,-112.418113,68634,59202,44211,528.3031273
740,4022073,Arizona,AZ,Apache County,Surprise,85374,33.6311813,-112.3506875,52098,41769,41370,365.8902695
741,4022083,Arizona,AZ,Apache County,Surprise,85379,33.6117732,-112.3839564,68223,59930,38206,327.5193169
742,4022093,Arizona,AZ,Apache County,Surprise,85374,33.6163815,-112.3506402,74805,74639,42339,179.7521392
743,4022103,Arizona,AZ,Apache County,Surprise,85379,33.595581,-112.361302,94206,105508,44029,127.1880295
744,4022113,Arizona,AZ,Apache County,El Mirage,85335,33.5875768,-112.3173879,53722,48785,45775,94.66093757
745,4022123,Arizona,AZ,Apache County,Glendale,85031,33.5295913,-112.3500764,34126,23244,30910,372.7570757
746,402213,Arizona,AZ,Apache County,Peoria,85381,33.6033854,-112.2606851,41322,33544,32593,1468.393662
747,4022133,Arizona,AZ,Apache County,Avondale,85323,33.4462357,-112.3417667,36663,44190,27720,284.5181722
748,4022143,Arizona,AZ,Apache County,Youngtown,85363,33.6103118,-112.2784919,46831,36258,37949,1168.908029
749,4022153,Arizona,AZ,Apache County,Peoria,85382,33.6272736,-112.2623302,49033,42535,36116,665.1412625
750,4022163,Arizona,AZ,Apache County,Glendale,85306,33.631369,-112.2099467,78406,63072,60304,466.5011135
751,4022173,Arizona,AZ,Apache County,Peoria,85382,33.6307643,-112.2451813,97948,90254,53208,317.9798714
752,4022183,Arizona,AZ,Apache County,El Mirage,85335,33.5916464,-112.3045197,41673,36883,31092,488.4817623
753,4022193,Arizona,AZ,Apache County,Phoenix,60048,33.5893833,-112.2782881,49075,36002,36263,189.5947661
754,4022203,Arizona,AZ,Apache County,Peoria,85345,33.5887966,-112.2115049,62982,300000,52955,135.4965978
755,4022213,Arizona,AZ,Apache County,Phoenix,60048,33.573695,-112.2632913,45412,36111,35272,388.2163565
756,4022223,Arizona,AZ,Apache County,Peoria,85345,33.5893163,-112.2449873,59615,48725,38228,415.7186298
757,402223,Arizona,AZ,Apache County,Peoria,85345,33.5885301,-112.228887,50209,40616,37601,1607.183433
758,4022233,Arizona,AZ,Apache County,Phoenix,85037,33.4994539,-112.280234,58722,54288,27925,571.4757487
759,4023783,Arizona,AZ,Apache County,Higley,85236,33.3503525,-111.7214724,115491,300000,55893,424.1953175
760,4022253,Arizona,AZ,Apache County,Avondale,85323,33.4807297,-112.3036975,78317,80080,52040,302.7389862
761,4022263,Arizona,AZ,Apache County,Chandler,85286,33.4496873,-112.3205947,69214,68132,39574,346.0780086
762,4022273,Arizona,AZ,Apache County,Tolleson,85353,33.4082453,-112.2599089,62737,63854,37537,302.6500781
763,4022283,Arizona,AZ,Apache County,Avondale,85323,33.4318212,-112.2960227,45979,36137,34815,357.2158966
764,4022293,Arizona,AZ,Apache County,Glendale,85302,33.5745886,-112.1945475,57211,55106,34539,334.5137471
765,4022303,Arizona,AZ,Apache County,Glendale,85302,33.5747176,-112.1602479,43142,33063,37008,375.4381625
766,4022313,Arizona,AZ,Apache County,Glendale,85302,33.5600973,-112.1967543,42951,34439,37514,583.1157473
767,4022323,Arizona,AZ,Apache County,Glendale,85301,33.5457957,-112.1774088,31282,24904,31028,643.4820149
768,4021063,Arizona,AZ,Apache County,Lake Havasu City,86406,34.4818248,-114.2795315,60355,47061,37967,1703.113158
769,4022333,Arizona,AZ,Apache County,Peoria,85345,33.5591592,-112.2464157,48369,45424,33656,385.1182114
770,4022343,Arizona,AZ,Apache County,Glendale,85303,33.5200387,-112.2117697,30984,22629,27231,412.8903047
771,4022353,Arizona,AZ,Apache County,Glendale,85307,33.515458,-112.2811302,57968,54131,33485,440.5134356
772,4022363,Arizona,AZ,Apache County,Peoria,85345,33.5581719,-112.2815339,52266,39258,44110,452.4821853
773,4022373,Arizona,AZ,Apache County,Glendale,85301,33.5312702,-112.1774451,32028,22837,31595,312.8862027
774,4022383,Arizona,AZ,Apache County,Glendale,85301,33.519177,-112.1572958,42559,300000,18205,309.2980619
775,4022403,Arizona,AZ,Apache County,Phoenix,85032,33.6043843,-111.9344318,103743,86769,65815,174.2890598
776,4022413,Arizona,AZ,Apache County,Phoenix,85032,33.6053327,-111.9874082,48340,42836,33920,494.9191849
777,4022423,Arizona,AZ,Apache County,Scottsdale,85254,33.6188319,-111.969144,100189,92369,60149,201.2523766
778,402243,Arizona,AZ,Apache County,Avondale,85323,33.4702087,-112.2812089,62606,56445,38024,847.1012729
779,4022433,Arizona,AZ,Apache County,Phoenix,85032,33.6331998,-111.9515948,127872,104833,74446,105.8881787
780,4022443,Arizona,AZ,Apache County,Phoenix,85032,33.6193209,-112.0046826,53206,49119,30378,444.085011
781,4022453,Arizona,AZ,Apache County,Phoenix,85032,33.6368982,-112.0254119,32557,28198,21225,427.6526174
782,4022463,Arizona,AZ,Apache County,Phoenix,85032,33.6062412,-112.0255743,68279,55641,57685,323.8434717
783,4022473,Arizona,AZ,Apache County,Phoenix,85023,33.6166417,-112.0797986,84906,91251,46740,209.2545167
784,4022483,Arizona,AZ,Apache County,Mesa,85204,33.6326258,-112.1078795,51012,44160,32543,340.6214504
785,4022493,Arizona,AZ,Apache County,Phoenix,85023,33.6300595,-112.0756897,112139,100267,76179,170.7852408
786,4022503,Arizona,AZ,Apache County,Phoenix,85020,33.5941537,-112.0555576,76235,63024,54692,179.3899876
787,4022513,Arizona,AZ,Apache County,Phoenix,85029,33.6036114,-112.1252568,34711,24672,30892,719.4753118
788,4021093,Arizona,AZ,Apache County,Lakeside,85929,34.1236048,-109.9520323,66618,59716,52953,708.7573466
789,402253,Arizona,AZ,Apache County,Glendale,85305,33.4006324,-112.3294874,47875,38458,36905,512.8803562
790,4022533,Arizona,AZ,Apache County,Phoenix,85051,33.5723303,-112.1454437,59141,300000,45149,363.8556215
791,4022543,Arizona,AZ,Apache County,Glendale,85306,33.6320319,-112.1771358,89451,85691,53050,171.6196332
792,4022553,Arizona,AZ,Apache County,Glendale,85306,33.6179605,-112.1770946,73962,68207,40859,259.8129665
793,4022563,Arizona,AZ,Apache County,Glendale,85304,33.5885017,-112.1766306,75091,49478,72053,331.2518096
794,4022573,Arizona,AZ,Apache County,Glendale,85304,33.604454,-112.1784017,103502,300000,60935,172.2235582
795,4022583,Arizona,AZ,Apache County,Phoenix,85029,33.5891286,-112.1287875,62283,53229,48657,369.1185355
796,4022593,Arizona,AZ,Apache County,Phoenix,85020,33.5709186,-112.0944957,28514,24354,18353,338.8228388
797,4022603,Arizona,AZ,Apache County,Phoenix,85020,33.5733812,-112.053608,30638,25986,21249,430.6191172
798,4022613,Arizona,AZ,Apache County,Phoenix,85028,33.5894838,-112.0243739,36247,25656,29339,293.8848791
799,4022623,Arizona,AZ,Apache County,Paradise Valley,85253,33.5441689,-111.9412986,158195,174901,87846,114.8520246
800,402263,Arizona,AZ,Apache County,Glendale,85302,33.56024,-112.1883998,28790,27582,20078,837.6651865
801,4022633,Arizona,AZ,Apache County,Phoenix,85018,33.5344403,-111.9903854,156210,300000,81016,146.8858432
802,4022643,Arizona,AZ,Apache County,Phoenix,85020,33.560285,-112.0910906,64385,43368,59448,373.0860673
803,4022653,Arizona,AZ,Apache County,Phoenix,85051,33.5603307,-112.1299019,65738,35636,66208,263.7850689
804,4022663,Arizona,AZ,Apache County,Phoenix,85051,33.5458065,-112.1428868,68470,69627,32811,240.0856266
805,4022673,Arizona,AZ,Apache County,Phoenix,85021,33.5457403,-112.0910561,75338,300000,59932,199.9923729
806,4022683,Arizona,AZ,Apache County,Phoenix,85016,33.5269516,-112.0379507,99390,79042,64220,177.7511759
807,4022693,Arizona,AZ,Apache County,Phoenix,85015,33.5349394,-112.0953652,37367,19895,38402,372.9837541
808,4022703,Arizona,AZ,Apache County,Phoenix,85015,33.5313801,-112.1059165,31947,27336,21279,326.5577278
809,4022713,Arizona,AZ,Apache County,Phoenix,85019,33.5204471,-112.1427058,32987,23394,30442,616.1139727
810,402273,Arizona,AZ,Apache County,Glendale,85303,33.5450265,-112.2290633,59661,56745,40374,576.2093078
811,4022733,Arizona,AZ,Apache County,Phoenix,85012,33.5165357,-112.0737249,78584,59991,59261,377.8466772
812,4022743,Arizona,AZ,Apache County,Phoenix,85016,33.5165871,-112.0387951,34781,25634,34078,460.0585652
813,4023613,Arizona,AZ,Apache County,Mesa,85201,33.4111435,-111.8721703,39844,35846,32837,650.7720683
814,4022763,Arizona,AZ,Apache County,Phoenix,85016,33.5023624,-112.0215697,100728,86129,70037,253.0433994
815,4022773,Arizona,AZ,Apache County,Phoenix,85014,33.5042337,-112.0540658,55315,52319,39490,314.3158442
816,4022793,Arizona,AZ,Apache County,Phoenix,85015,33.4995459,-112.1073358,24966,18923,17301,421.9941776
817,4022803,Arizona,AZ,Apache County,Phoenix,85031,33.5021803,-112.1602288,48146,36863,49822,267.6897145
818,4022813,Arizona,AZ,Apache County,Phoenix,85033,33.5025844,-112.1933395,53956,48164,38525,329.889774
819,4022823,Arizona,AZ,Apache County,Phoenix,85033,33.5015918,-112.22502,41922,45341,24445,270.9563484
820,402283,Arizona,AZ,Apache County,Peoria,85345,33.558242,-112.2983535,60357,48998,42482,1044.468615
821,4022833,Arizona,AZ,Apache County,Phoenix,85033,33.4874706,-112.21623,51831,45041,35513,219.5898112
822,4023583,Arizona,AZ,Apache County,Mesa,85203,33.4331863,-111.8141543,44859,38477,35057,421.8164515
823,4022853,Arizona,AZ,Apache County,Phoenix,85009,33.4887227,-112.143503,23386,15438,27862,362.8215166
824,4022863,Arizona,AZ,Apache County,Phoenix,85012,33.4875221,-112.0694199,42813,33403,33527,470.9437815
825,4022873,Arizona,AZ,Apache County,Phoenix,85016,33.4913915,-112.021563,45718,32732,40236,466.8359835
826,4022883,Arizona,AZ,Apache County,Phoenix,85018,33.4875531,-111.9867811,78664,60388,55554,224.0228708
827,4022893,Arizona,AZ,Apache County,Phoenix,85008,33.4740317,-111.9709762,57823,40924,47272,323.2554088
828,4022903,Arizona,AZ,Apache County,Phoenix,85008,33.4730969,-112.0085557,50241,45303,27750,446.7120128
829,4022913,Arizona,AZ,Apache County,Phoenix,85006,33.4730134,-112.0432967,29408,25411,21820,299.7185225
830,4022923,Arizona,AZ,Apache County,Phoenix,85002,33.4730347,-112.0739665,84105,43191,80492,222.0878773
831,4022933,Arizona,AZ,Apache County,Phoenix,85009,33.4724482,-112.1477014,44890,52465,30181,237.2892502
832,4022943,Arizona,AZ,Apache County,Phoenix,85035,33.4768815,-112.1777032,24834,21181,17371,463.0508648
833,4022953,Arizona,AZ,Apache County,Phoenix,85035,33.4730267,-112.2119981,43295,33704,29007,525.9571103
834,4022963,Arizona,AZ,Apache County,Phoenix,85035,33.4642123,-112.1684127,31140,26803,19330,246.8259053
835,4022973,Arizona,AZ,Apache County,Phoenix,85043,33.4071318,-112.2209946,40916,26685,38775,117.0607093
836,4022983,Arizona,AZ,Apache County,Phoenix,85009,33.4566702,-112.1430073,19270,15281,14143,421.9811999
837,4022993,Arizona,AZ,Apache County,Phoenix,85007,33.4585736,-112.0913351,24292,13722,23092,281.0469848
838,4023753,Arizona,AZ,Apache County,Mesa,85204,33.3864079,-111.7625514,100489,89197,65596,170.9839366
839,4023003,Arizona,AZ,Apache County,Phoenix,85006,33.4622079,-112.0564199,35967,25157,42855,492.4117389
840,4023013,Arizona,AZ,Apache County,Phoenix,85008,33.4620494,-111.9990272,37136,37586,28352,435.5744237
841,402303,Arizona,AZ,Apache County,Phoenix,85032,33.6186525,-111.9512025,108707,98161,64412,506.8604531
842,4023033,Arizona,AZ,Apache County,Phoenix,85007,33.4439794,-112.10407,25534,12073,38688,192.6861211
843,4023053,Arizona,AZ,Apache County,Phoenix,85041,33.3993852,-112.142267,35368,28554,27890,444.8912812
844,4023063,Arizona,AZ,Apache County,Phoenix,85040,33.3995851,-112.0559842,37930,31929,30796,727.705935
845,4023073,Arizona,AZ,Apache County,Phoenix,85042,33.3885831,-111.9874871,53412,54722,33779,99.79110281
846,4023083,Arizona,AZ,Apache County,Phoenix,85042,33.3853695,-112.0387139,42456,36421,30542,362.9860461
847,4023093,Arizona,AZ,Apache County,Phoenix,85041,33.3849687,-112.0905339,66692,56266,51940,476.0343917
848,4023103,Arizona,AZ,Apache County,Phoenix,85041,33.3990267,-112.123348,55383,53147,28771,492.0111478
849,4023113,Arizona,AZ,Apache County,Phoenix,85041,33.3704008,-112.1258061,73010,300000,47606,131.1290273
850,4023123,Arizona,AZ,Apache County,Phoenix,85042,33.367837,-112.0575744,68700,60652,51740,354.6148025
851,402313,Arizona,AZ,Apache County,Phoenix,85032,33.6298167,-112.0253133,32221,26550,23184,1183.910081
852,4023133,Arizona,AZ,Apache County,Phoenix,85044,33.3409205,-111.9835193,52684,42379,33469,510.2133187
853,4023143,Arizona,AZ,Apache County,Phoenix,85048,33.2979769,-111.9845655,87130,300000,57295,442.4435618
854,4023153,Arizona,AZ,Apache County,Phoenix,85044,33.3268322,-111.9759387,48421,46637,26529,709.7713663
855,4023163,Arizona,AZ,Apache County,Phoenix,85048,33.3092109,-112.0136469,111515,116407,65963,211.3464285
856,4023853,Arizona,AZ,Apache County,Mesa,85209,33.3718076,-111.6274317,93034,300000,47240,139.3217901
857,4023183,Arizona,AZ,Apache County,Phoenix,85007,33.4658538,-112.1086031,24327,15458,25738,212.0536937
858,4023193,Arizona,AZ,Apache County,Phoenix,85009,33.420063,-112.1144023,33073,19580,45908,115.4281355
859,4023203,Arizona,AZ,Apache County,Scottsdale,85258,33.5751643,-111.8802501,57926,46086,45388,526.4446399
860,4023213,Arizona,AZ,Apache County,Fountain Hills,85268,33.5925148,-111.720591,62943,48113,54660,582.2453387
861,4023223,Arizona,AZ,Apache County,Fountain Hills,85268,33.5891915,-111.7497196,135062,126226,78868,197.5476764
862,402323,Arizona,AZ,Apache County,Phoenix,85023,33.628231,-112.0612399,97055,86016,63082,823.0443742
863,4023233,Arizona,AZ,Apache County,Scottsdale,85266,33.7883642,-111.819893,135404,300000,75709,229.0513889
864,4023243,Arizona,AZ,Apache County,Scottsdale,85258,33.573508,-111.8521592,99025,72753,73051,239.6430416
865,4023253,Arizona,AZ,Apache County,Scottsdale,85259,33.5890025,-111.8373468,53478,38852,41506,750.3728974
866,4023263,Arizona,AZ,Apache County,Phoenix,85032,33.6896109,-111.9086338,122412,105159,94141,215.4882998
867,4023283,Arizona,AZ,Apache County,Scottsdale,85259,33.6147408,-111.8202992,175150,300000,68751,61.09287582
868,4023293,Arizona,AZ,Apache County,Scottsdale,85255,33.6773576,-111.8382486,144695,140525,79065,117.4574833
869,4021423,Arizona,AZ,Apache County,Nogales,85621,31.4430891,-110.8696338,59894,51629,43441,1889.117663
870,4023313,Arizona,AZ,Apache County,Scottsdale,85250,33.5162635,-111.8980634,88864,300000,64065,262.1534809
871,4023323,Arizona,AZ,Apache County,Scottsdale,85251,33.5071933,-111.91706,62030,52713,49288,200.7924067
872,4024113,Arizona,AZ,Apache County,Peoria,85382,33.6455789,-112.2459731,46148,41980,26566,580.7486172
873,4023333,Arizona,AZ,Apache County,Scottsdale,85257,33.4794719,-111.9509448,112364,94834,71876,158.3227365
874,4023343,Arizona,AZ,Apache County,Scottsdale,85257,33.4860977,-111.9159439,54953,47784,38364,442.1216543
875,4023353,Arizona,AZ,Apache County,Scottsdale,85257,33.4748808,-111.9196965,77880,72159,42161,177.8878358
876,4023363,Arizona,AZ,Apache County,Scottsdale,85271,33.4619603,-111.9163918,53752,39205,37553,482.3499884
877,4023373,Arizona,AZ,Apache County,Scottsdale,85257,33.4553353,-111.9348913,77570,76378,57866,105.1594632
878,4023383,Arizona,AZ,Apache County,Tempe,85281,33.4146651,-111.952179,49214,30511,49539,368.3201323
879,4023393,Arizona,AZ,Apache County,Tempe,85281,33.4111439,-111.9176864,27059,20528,21419,346.047338
880,4023403,Arizona,AZ,Apache County,Tempe,85281,33.417039,-111.8867329,38782,27170,35066,806.7955038
881,4023413,Arizona,AZ,Apache County,Tempe,85282,33.400944,-111.9001315,64293,64567,42441,191.4769983
882,4023423,Arizona,AZ,Apache County,Tempe,85285,33.4001798,-111.9349062,74365,62418,51542,230.4113837
883,402343,Arizona,AZ,Apache County,Glendale,85306,33.6179382,-112.1597847,66559,55536,50004,804.6677544
884,4023433,Arizona,AZ,Apache County,Tempe,85283,33.3821331,-111.9533755,67101,58579,47130,243.5549545
885,4023443,Arizona,AZ,Apache County,Tempe,85283,33.3703792,-111.9155206,69602,63973,43386,532.6348559
886,4023453,Arizona,AZ,Apache County,Tempe,85283,33.3564609,-111.9198593,88421,65315,64031,215.5534713
887,4023463,Arizona,AZ,Apache County,Tempe,85283,33.3551683,-111.9572021,45168,42456,24238,450.8819608
888,4023473,Arizona,AZ,Apache County,Tempe,85283,33.3716749,-111.9530168,45627,42994,34755,417.4561175
889,4023483,Arizona,AZ,Apache County,Mesa,85207,33.4807379,-111.6750323,125247,300000,61736,198.1801132
890,4023493,Arizona,AZ,Apache County,Mesa,85207,33.4283654,-111.5878372,85162,77418,60748,334.9369317
891,4023503,Arizona,AZ,Apache County,Mesa,85207,33.4187068,-111.5941823,42594,34336,39112,325.3257562
892,4023513,Arizona,AZ,Apache County,Mesa,85205,33.4300703,-111.7277109,73432,50801,65851,408.8418538
893,4023523,Arizona,AZ,Apache County,Mesa,85215,33.4735699,-111.6925704,99691,300000,62209,285.1861805
894,402353,Arizona,AZ,Apache County,Phoenix,85029,33.5896579,-112.1208241,41582,32262,36195,1245.637021
895,4023533,Arizona,AZ,Apache County,Mesa,85206,33.4446172,-111.7102505,52597,34673,48645,744.7678503
896,4023543,Arizona,AZ,Apache County,Mesa,85201,33.4569965,-111.8274309,34286,28737,22710,269.2573482
897,4023553,Arizona,AZ,Apache County,Mesa,85203,33.443353,-111.8098312,64256,53389,46502,459.6407869
898,4023563,Arizona,AZ,Apache County,Mesa,85213,33.4300168,-111.7622801,110519,103507,68473,140.7226442
899,4023573,Arizona,AZ,Apache County,Mesa,85204,33.4145175,-111.7606298,41775,32826,30306,914.6819148
900,4023593,Arizona,AZ,Apache County,Mesa,85201,33.4477557,-111.8475423,44275,41195,27647,407.4918984
901,4023603,Arizona,AZ,Apache County,Mesa,85201,33.426999,-111.8632578,56661,40216,47470,324.0216378
902,4024053,Arizona,AZ,Apache County,Peoria,85382,33.6601992,-112.2446432,66514,58953,43476,368.6165421
903,4023623,Arizona,AZ,Apache County,Mesa,85203,33.4189111,-111.7967357,47381,37534,37027,521.9882476
904,402363,Arizona,AZ,Apache County,Phoenix,85028,33.5898363,-112.0044597,81409,67221,54440,719.8576135
905,4023633,Arizona,AZ,Apache County,Mesa,85204,33.4117785,-111.7796786,29732,22241,23536,376.9906219
906,4023643,Arizona,AZ,Apache County,Mesa,85204,33.4042227,-111.8141162,43941,43588,23797,259.0904936
907,4023653,Arizona,AZ,Apache County,Mesa,85202,33.3966747,-111.8698091,33140,23772,26435,768.4812184
908,4023663,Arizona,AZ,Apache County,Mesa,85210,33.4040946,-111.8484498,32126,26913,23665,1033.506696
909,4023673,Arizona,AZ,Apache County,Mesa,85202,33.3837635,-111.878993,80563,72386,42844,206.9506492
910,4023683,Arizona,AZ,Apache County,Chandler,85224,33.3422819,-111.8849819,83442,74528,54039,298.7113292
911,4023693,Arizona,AZ,Apache County,Mesa,85210,33.3715446,-111.8507247,84422,300000,47833,248.620876
912,4023703,Arizona,AZ,Apache County,Mesa,85202,33.3716293,-111.8693392,67881,57898,40388,157.5577758
913,4023713,Arizona,AZ,Apache County,Mesa,85204,33.3861137,-111.7970864,45774,43963,31948,198.5586989
914,402373,Arizona,AZ,Apache County,Tucson,85754,33.5603767,-112.1126416,41514,28215,42720,700.8755736
915,4023733,Arizona,AZ,Apache County,Gilbert,85234,33.357289,-111.7814095,70852,51976,57088,485.7825579
916,4023743,Arizona,AZ,Apache County,Mesa,85204,33.4009336,-111.7624714,68804,300000,25791,134.8579452
917,4023993,Arizona,AZ,Apache County,Peoria,85383,33.6883797,-112.2710053,69865,64652,43963,201.8538333
918,4023763,Arizona,AZ,Apache County,Gilbert,85234,33.3697053,-111.7472622,111392,103284,68079,88.92555286
919,4023773,Arizona,AZ,Apache County,Gilbert,85296,33.3428917,-111.764314,101890,84302,70831,224.9525839
920,4023793,Arizona,AZ,Apache County,Mesa,85208,33.3950184,-111.6097111,100687,88002,53035,239.1447643
921,4023803,Arizona,AZ,Apache County,Gilbert,85234,33.3720322,-111.730671,101536,92331,60313,164.8207449
922,4023813,Arizona,AZ,Apache County,Mesa,85205,33.4117435,-111.7264539,51483,41225,39819,565.5138217
923,4023823,Arizona,AZ,Apache County,Mesa,85208,33.4114968,-111.5927476,53799,50175,29648,467.0451661
924,402383,Arizona,AZ,Apache County,Phoenix,85021,33.5494847,-112.1059643,36117,27153,31402,745.6089436
925,4023833,Arizona,AZ,Apache County,Mesa,85209,33.3863343,-111.6609716,42627,39086,33707,553.5438038
926,4023843,Arizona,AZ,Apache County,Mesa,85206,33.3984646,-111.6963228,38380,38074,23448,316.2574083
927,4022783,Arizona,AZ,Apache County,Phoenix,85013,33.5054188,-112.0934517,38576,25061,30902,522.9096677
928,4023863,Arizona,AZ,Apache County,Mesa,85212,33.3057429,-111.6550856,42944,33147,32337,244.2286147
929,4023873,Arizona,AZ,Apache County,Chandler,85224,33.313355,-111.8503094,58576,35059,58098,357.2808651
930,4023883,Arizona,AZ,Apache County,Chandler,85224,33.3133108,-111.8677386,84613,77331,50111,167.6223229
931,4023893,Arizona,AZ,Apache County,Chandler,85224,33.298277,-111.8671283,76288,62735,49315,327.0179011
932,4023903,Arizona,AZ,Apache County,Anthem,85086,33.8634136,-112.1071558,123366,300000,51811,44.62641082
933,4023923,Arizona,AZ,Apache County,Phoenix,85086,33.8545369,-112.0204517,64088,51041,41916,705.1368311
934,402393,Arizona,AZ,Apache County,Phoenix,85013,33.5348013,-112.0867781,67245,44042,65800,373.3529477
935,4023933,Arizona,AZ,Apache County,Peoria,85383,33.7110414,-112.21145,126364,300000,60251,172.5802075
936,4023943,Arizona,AZ,Apache County,Glendale,85310,33.7200708,-112.1508333,132807,126260,61523,150.816973
937,4023953,Arizona,AZ,Apache County,Glendale,85310,33.7239873,-112.1330172,126340,300000,58695,109.6238187
938,4023963,Arizona,AZ,Apache County,Cave Creek,85327,33.7557625,-112.0292045,100628,94038,59935,367.4089897
939,4023973,Arizona,AZ,Apache County,Cave Creek,85327,33.748082,-111.9690731,107472,95480,63807,241.1832042
940,4023983,Arizona,AZ,Apache County,Cave Creek,85327,33.7193678,-111.9670813,105265,300000,69157,150.3241058
941,4022723,Arizona,AZ,Apache County,Phoenix,85015,33.5168231,-112.10837,28292,16891,28442,340.8405011
942,4024003,Arizona,AZ,Apache County,Glendale,85310,33.6887701,-112.2123501,113533,107167,55868,216.0794043
