[
    {
        "lat": 34.1148304,
        "lng": -86.8638916,
        "rating": 4.3,
        "place_id": "ChIJ09dxR4DKiYgRHx2rvsxD3EE",
        "total_ratings": 1108,
        "plus_code": "447P+WC Good Hope, Alabama",
        "vicinity": "1707 Co Rd 437, Good Hope"
    },
    {
        "lat": 34.7126254,
        "lng": -87.6673184,
        "rating": 4,
        "place_id": "ChIJCe8s6f1QfYgRjlXE1SbV8XY",
        "total_ratings": 1070,
        "plus_code": "P87M+34 Tuscumbia, Alabama",
        "vicinity": "183 US-43, Tuscumbia"
    },
    {
        "lat": 33.5976208,
        "lng": -86.6448142,
        "rating": 3.9,
        "place_id": "ChIJpXOuCsENiYgRDx8sQj0tlKs",
        "total_ratings": 994,
        "plus_code": "H9X4+23 Birmingham, Alabama",
        "vicinity": "1440 Gadsden Hwy, Birmingham"
    },
    {
        "lat": 32.5634436,
        "lng": -85.5031425,
        "rating": 3.9,
        "place_id": "ChIJDVkLbOnzjIgRrj7pvV2GGzY",
        "total_ratings": 913,
        "plus_code": "HF7W+9P Auburn, Alabama",
        "vicinity": "2167 S College St, Auburn"
    },
    {
        "lat": 31.2175184,
        "lng": -85.36229279999999,
        "rating": 4.2,
        "place_id": "ChIJNTT5sHuTkogReKgKP6phcd0",
        "total_ratings": 862,
        "plus_code": "6J8Q+X3 Dothan, Alabama",
        "vicinity": "1925 E Main St, Dothan"
    },
    {
        "lat": 33.5642444,
        "lng": -86.5223615,
        "rating": 4.3,
        "place_id": "ChIJ_3BjU4xtiYgR0tdGeniZVvU",
        "total_ratings": 768,
        "plus_code": "HF7H+P3 Leeds, Alabama",
        "vicinity": "1850 Ashville Rd, Leeds"
    },
    {
        "lat": 30.6489695,
        "lng": -88.12658019999999,
        "rating": 4.2,
        "place_id": "ChIJWdmOTVRMmogRfI9VMl5wqD4",
        "total_ratings": 585,
        "plus_code": "JVXF+H9 Mobile, Alabama",
        "vicinity": "3671 Government Blvd, Mobile"
    },
    {
        "lat": 33.3869164,
        "lng": -86.7395797,
        "rating": 4.3,
        "place_id": "ChIJGYu3f1I9iYgRnZ1-_9q99qQ",
        "total_ratings": 334,
        "plus_code": "97P6+Q5 Hoover, Alabama",
        "vicinity": "5176 Caldwell Mill Rd, Hoover"
    },
    {
        "lat": 30.6489695,
        "lng": -88.12658019999999,
        "rating": 4.2,
        "place_id": "ChIJWdmOTVRMmogRfI9VMl5wqD4",
        "total_ratings": 585,
        "plus_code": "JVXF+H9 Mobile, Alabama",
        "vicinity": "3671 Government Blvd, Mobile"
    },
    {
        "lat": 32.5634436,
        "lng": -85.5031425,
        "rating": 3.9,
        "place_id": "ChIJDVkLbOnzjIgRrj7pvV2GGzY",
        "total_ratings": 913,
        "plus_code": "HF7W+9P Auburn, Alabama",
        "vicinity": "2167 S College St, Auburn"
    },
    {
        "lat": 34.2767714,
        "lng": -86.20311579999999,
        "rating": 4.2,
        "place_id": "ChIJjVpT0jMDiogRi6RMHlHzFiI",
        "total_ratings": 532,
        "plus_code": "7QGW+PP Albertville, Alabama",
        "vicinity": "80 AL-75, Albertville"
    },
    {
        "lat": 33.1765247,
        "lng": -87.4695265,
        "rating": 3.9,
        "place_id": "ChIJWRc1GzCpiIgRfpyoIqF7QJU",
        "total_ratings": 792,
        "plus_code": "5GGJ+J5 Tuscaloosa, Alabama",
        "vicinity": "5001 Skyland E Blvd, Tuscaloosa"
    },
    {
        "lat": 32.370461,
        "lng": -86.17063399999999,
        "rating": 3.7,
        "place_id": "ChIJx1Ljux4tjIgRWEoUGi_qkFI",
        "total_ratings": 60,
        "plus_code": "9RCH+5P Montgomery, Alabama",
        "vicinity": "837 Taylor Rd, Montgomery"
    },
    {
        "lat": 30.5416471,
        "lng": -88.2427173,
        "rating": 4.2,
        "place_id": "ChIJLaR6A7u1m4gRk0x9-usv4io",
        "total_ratings": 510,
        "plus_code": "GQR4+MW Irvington, Alabama",
        "vicinity": "8354 I 10 Service Rd, Irvington"
    },
    {
        "lat": 32.8197476,
        "lng": -85.2107017,
        "rating": 4,
        "place_id": "ChIJORTBcUijjIgRKQvA0L6QDwo",
        "total_ratings": 633,
        "plus_code": "RQ9Q+VP Valley, Alabama",
        "vicinity": "580 Fob James Dr, Valley"
    },
    {
        "lat": 33.9973818,
        "lng": -86.00398240000001,
        "rating": 4.2,
        "place_id": "ChIJS4Ix-1I5iogRof7adRlrT0I",
        "total_ratings": 664,
        "plus_code": "XXWW+XC Gadsden, Alabama",
        "vicinity": "1000 Rainbow Dr, Gadsden"
    },
    {
        "lat": 34.8287693,
        "lng": -87.63683689999999,
        "rating": 3.7,
        "place_id": "ChIJOyREeOhJfYgR1fw62P6wWr8",
        "total_ratings": 1017,
        "plus_code": "R9H7+G8 Florence, Alabama",
        "vicinity": "2501 Florence Blvd, Florence"
    },
    {
        "lat": 33.6155245,
        "lng": -85.82721760000001,
        "rating": 4.2,
        "place_id": "ChIJSZ7wUxWxi4gRer5JZs1rqa0",
        "total_ratings": 653,
        "plus_code": "J58F+64 Oxford, Alabama",
        "vicinity": "545 S Quintard Ave, Oxford"
    },
    {
        "lat": 33.4147421,
        "lng": -86.8052653,
        "rating": 4.1,
        "place_id": "ChIJD5y_wb4YiYgRuaxVDQD2we8",
        "total_ratings": 1030,
        "plus_code": "C57V+WV Vestavia Hills, Alabama",
        "vicinity": "3023 Columbiana Rd, Vestavia Hills"
    },
    {
        "lat": 30.6554804,
        "lng": -87.90599809999999,
        "rating": 4.1,
        "place_id": "ChIJK_moUw9DmogRwVSyDOX5ev0",
        "total_ratings": 536,
        "plus_code": "M34V+5J Daphne, Alabama",
        "vicinity": "6781 US-90, Daphne"
    },
    {
        "lat": 30.6788662,
        "lng": -88.2259341,
        "rating": 4,
        "place_id": "ChIJS824wWqym4gROfOoMksucAQ",
        "total_ratings": 630,
        "plus_code": "MQHF+GH Mobile, Alabama",
        "vicinity": "560 Schillinger Rd, Mobile"
    },
    {
        "lat": 33.1765247,
        "lng": -87.4695265,
        "rating": 3.9,
        "place_id": "ChIJWRc1GzCpiIgRfpyoIqF7QJU",
        "total_ratings": 792,
        "plus_code": "5GGJ+J5 Tuscaloosa, Alabama",
        "vicinity": "5001 Skyland E Blvd, Tuscaloosa"
    },
    {
        "lat": 31.2175184,
        "lng": -85.36229279999999,
        "rating": 4.2,
        "place_id": "ChIJNTT5sHuTkogReKgKP6phcd0",
        "total_ratings": 862,
        "plus_code": "6J8Q+X3 Dothan, Alabama",
        "vicinity": "1925 E Main St, Dothan"
    },
    {
        "lat": 32.8197476,
        "lng": -85.2107017,
        "rating": 4,
        "place_id": "ChIJORTBcUijjIgRKQvA0L6QDwo",
        "total_ratings": 633,
        "plus_code": "RQ9Q+VP Valley, Alabama",
        "vicinity": "580 Fob James Dr, Valley"
    },
    {
        "lat": 33.3965019,
        "lng": -86.9686783,
        "rating": 3.7,
        "place_id": "ChIJVbQoDRzeiIgRZhCEq045yTM",
        "total_ratings": 572,
        "plus_code": "92WJ+HH Bessemer, Alabama",
        "vicinity": "931 9th Ave N, Bessemer"
    },
    {
        "lat": 33.3546968,
        "lng": -86.8438783,
        "rating": 4.2,
        "place_id": "ChIJg5_Aa6AhiYgR6V0mDEt38qs",
        "total_ratings": 325,
        "plus_code": "9534+VC Hoover, Alabama",
        "vicinity": "2535 John Hawkins Pkwy, Hoover"
    },
    {
        "lat": 34.2767714,
        "lng": -86.20311579999999,
        "rating": 4.2,
        "place_id": "ChIJjVpT0jMDiogRi6RMHlHzFiI",
        "total_ratings": 532,
        "plus_code": "7QGW+PP Albertville, Alabama",
        "vicinity": "80 AL-75, Albertville"
    },
    {
        "lat": 34.7384458,
        "lng": -86.57939470000001,
        "rating": 4,
        "place_id": "ChIJxSsdv7IUYogRT8yjr2jkUBE",
        "total_ratings": 1057,
        "plus_code": "PCQC+97 Huntsville, Alabama",
        "vicinity": "408 Pratt Ave NE, Huntsville"
    },
    {
        "lat": 34.7345646,
        "lng": -86.6255666,
        "rating": 3.8,
        "place_id": "ChIJdd_S9INrYogROCx69kq-fug",
        "total_ratings": 961,
        "plus_code": "P9MF+RQ Huntsville, Alabama",
        "vicinity": "3995 University Dr, Huntsville"
    },
    {
        "lat": 30.8332523,
        "lng": -88.0685312,
        "rating": 4,
        "place_id": "ChIJfUswXLhWmogRjHpYGlIQCps",
        "total_ratings": 446,
        "plus_code": "RWMJ+8H Saraland, Alabama",
        "vicinity": "811 US HWY 43 SOUTH, Saraland"
    },
    {
        "lat": 32.268816,
        "lng": -86.3574806,
        "rating": 4,
        "place_id": "ChIJ2UQhG8h9jogR6PVG8FMNJy0",
        "total_ratings": 784,
        "plus_code": "7J9V+G2 Montgomery, Alabama",
        "vicinity": "90 Folmar Pkwy, Montgomery"
    },
    {
        "lat": 32.4877347,
        "lng": -86.4110932,
        "rating": 4.1,
        "place_id": "ChIJOQ8y0ayajogRkr9V65SFx08",
        "total_ratings": 1137,
        "plus_code": "FHQQ+3H Prattville, Alabama",
        "vicinity": "791 Business Park Dr, Prattville"
    },
    {
        "lat": 33.532986,
        "lng": -86.70225459999999,
        "rating": 4.2,
        "place_id": "ChIJwRrkxlQQiYgRY9yKnenDOm4",
        "total_ratings": 1003,
        "plus_code": "G7MX+54 Irondale, Alabama",
        "vicinity": "1833 Crestwood Blvd, Irondale"
    },
    {
        "lat": 30.5986453,
        "lng": -87.8988394,
        "rating": 4.3,
        "place_id": "ChIJdRJqqm5BmogRUzcrbpfq_zU",
        "total_ratings": 102,
        "plus_code": "H4X2+FF Daphne, Alabama",
        "vicinity": "1439 US-98, Daphne"
    },
    {
        "lat": 31.4486321,
        "lng": -85.6594329,
        "rating": 4.2,
        "place_id": "ChIJ1c22pUp8kogRIpeE8wYDbPg",
        "total_ratings": 751,
        "plus_code": "C8XR+F6 Ozark, Alabama",
        "vicinity": "970 N US Hwy 231, Ozark"
    },
    {
        "lat": 33.9973818,
        "lng": -86.00398240000001,
        "rating": 4.2,
        "place_id": "ChIJS4Ix-1I5iogRof7adRlrT0I",
        "total_ratings": 664,
        "plus_code": "XXWW+XC Gadsden, Alabama",
        "vicinity": "1000 Rainbow Dr, Gadsden"
    },
    {
        "lat": 30.6788662,
        "lng": -88.2259341,
        "rating": 4,
        "place_id": "ChIJS824wWqym4gROfOoMksucAQ",
        "total_ratings": 630,
        "plus_code": "MQHF+GH Mobile, Alabama",
        "vicinity": "560 Schillinger Rd, Mobile"
    },
    {
        "lat": 30.6788662,
        "lng": -88.2259341,
        "rating": 4,
        "place_id": "ChIJS824wWqym4gROfOoMksucAQ",
        "total_ratings": 630,
        "plus_code": "MQHF+GH Mobile, Alabama",
        "vicinity": "560 Schillinger Rd, Mobile"
    },
    {
        "lat": 33.164746,
        "lng": -87.5515022,
        "rating": 4.1,
        "place_id": "ChIJef9u-BIChogRSHN2qjIIdAY",
        "total_ratings": 760,
        "plus_code": "5C7X+V9 Tuscaloosa, Alabama",
        "vicinity": "5037 Oscar Baxter Dr, Tuscaloosa"
    },
    {
        "lat": 30.7036852,
        "lng": -88.22514319999999,
        "rating": 3.9,
        "place_id": "ChIJ94feHCqtm4gR5-zY0E6NTZE",
        "total_ratings": 128,
        "plus_code": "PQ3F+FX Mobile, Alabama",
        "vicinity": "650 Schillinger Rd N, Mobile"
    },
    {
        "lat": 31.7826576,
        "lng": -85.952301,
        "rating": 4.1,
        "place_id": "ChIJfYdp1tzrjYgREvHVhp3jV8w",
        "total_ratings": 472,
        "plus_code": "Q2MX+33 Troy, Alabama",
        "vicinity": "1208 A St 231 SOUTH, Troy"
    },
    {
        "lat": 31.2175184,
        "lng": -85.36229279999999,
        "rating": 4.2,
        "place_id": "ChIJNTT5sHuTkogReKgKP6phcd0",
        "total_ratings": 862,
        "plus_code": "6J8Q+X3 Dothan, Alabama",
        "vicinity": "1925 E Main St, Dothan"
    },
    {
        "lat": 33.6155245,
        "lng": -85.82721760000001,
        "rating": 4.2,
        "place_id": "ChIJSZ7wUxWxi4gRer5JZs1rqa0",
        "total_ratings": 653,
        "plus_code": "J58F+64 Oxford, Alabama",
        "vicinity": "545 S Quintard Ave, Oxford"
    },
    {
        "lat": 33.5944075,
        "lng": -86.12257009999999,
        "rating": 4.1,
        "place_id": "ChIJI_dbXU7Qi4gRca_26oIvpKA",
        "total_ratings": 705,
        "plus_code": "HVVG+QX Lincoln, Alabama",
        "vicinity": "670 Magnolia St, Lincoln"
    },
    {
        "lat": 31.3005194,
        "lng": -85.72633859999999,
        "rating": 4.2,
        "place_id": "ChIJyahLTzNkkogR9w3DRG7XMkw",
        "total_ratings": 660,
        "plus_code": "872F+6F Daleville, Alabama",
        "vicinity": "394 Virginia Ave, Daleville"
    },
    {
        "lat": 32.370461,
        "lng": -86.17063399999999,
        "rating": 3.7,
        "place_id": "ChIJx1Ljux4tjIgRWEoUGi_qkFI",
        "total_ratings": 60,
        "plus_code": "9RCH+5P Montgomery, Alabama",
        "vicinity": "837 Taylor Rd, Montgomery"
    },
    {
        "lat": 31.8491991,
        "lng": -86.64003079999999,
        "rating": 3.9,
        "place_id": "ChIJE-mZPDw8jogRWSY6GKjB-NI",
        "total_ratings": 931,
        "plus_code": "R9X5+MX Greenville, Alabama",
        "vicinity": "948 Fort Dale Rd, Greenville"
    },
    {
        "lat": 30.6788662,
        "lng": -88.2259341,
        "rating": 4,
        "place_id": "ChIJS824wWqym4gROfOoMksucAQ",
        "total_ratings": 630,
        "plus_code": "MQHF+GH Mobile, Alabama",
        "vicinity": "560 Schillinger Rd, Mobile"
    },
    {
        "lat": 33.8188766,
        "lng": -85.76161789999999,
        "rating": 4.2,
        "place_id": "ChIJNdMbVPlRiogRMe-PPOQNlrU",
        "total_ratings": 451,
        "plus_code": "R69Q+G8 Jacksonville, Alabama",
        "vicinity": "500 Pelham Rd N, Jacksonville"
    },
    {
        "lat": 31.2175184,
        "lng": -85.36229279999999,
        "rating": 4.2,
        "place_id": "ChIJNTT5sHuTkogReKgKP6phcd0",
        "total_ratings": 862,
        "plus_code": "6J8Q+X3 Dothan, Alabama",
        "vicinity": "1925 E Main St, Dothan"
    },
    {
        "lat": 32.5634436,
        "lng": -85.5031425,
        "rating": 3.9,
        "place_id": "ChIJDVkLbOnzjIgRrj7pvV2GGzY",
        "total_ratings": 913,
        "plus_code": "HF7W+9P Auburn, Alabama",
        "vicinity": "2167 S College St, Auburn"
    },
    {
        "lat": 31.3005194,
        "lng": -85.72633859999999,
        "rating": 4.2,
        "place_id": "ChIJyahLTzNkkogR9w3DRG7XMkw",
        "total_ratings": 660,
        "plus_code": "872F+6F Daleville, Alabama",
        "vicinity": "394 Virginia Ave, Daleville"
    },
    {
        "lat": 33.9973818,
        "lng": -86.00398240000001,
        "rating": 4.2,
        "place_id": "ChIJS4Ix-1I5iogRof7adRlrT0I",
        "total_ratings": 664,
        "plus_code": "XXWW+XC Gadsden, Alabama",
        "vicinity": "1000 Rainbow Dr, Gadsden"
    },
    {
        "lat": 30.6788662,
        "lng": -88.2259341,
        "rating": 4,
        "place_id": "ChIJS824wWqym4gROfOoMksucAQ",
        "total_ratings": 630,
        "plus_code": "MQHF+GH Mobile, Alabama",
        "vicinity": "560 Schillinger Rd, Mobile"
    },
    {
        "lat": 30.47097789999999,
        "lng": -87.7017268,
        "rating": 4.2,
        "place_id": "ChIJlw1-roMSmogRtaHBwNTlw_c",
        "total_ratings": 517,
        "plus_code": "F7CX+98 Summerdale, Alabama",
        "vicinity": "1024 AL-59, Summerdale"
    },
    {
        "lat": 33.7816756,
        "lng": -85.89800579999999,
        "rating": 4.1,
        "place_id": "ChIJS-cS_FBKiogRn4GsaWbs4MY",
        "total_ratings": 531,
        "plus_code": "Q4J2+MQ Alexandria, Alabama",
        "vicinity": "119 Big Valley Dr, Alexandria"
    },
    {
        "lat": 32.4717152,
        "lng": -84.98709810000001,
        "rating": 4.2,
        "place_id": "ChIJ-b91Va_NjIgRcMhsYXYdOw0",
        "total_ratings": 1006,
        "plus_code": "F2C7+M5 Columbus, Georgia",
        "vicinity": "1326 Veterans Pkwy, Columbus"
    },
    {
        "lat": 30.6788662,
        "lng": -88.2259341,
        "rating": 4,
        "place_id": "ChIJS824wWqym4gROfOoMksucAQ",
        "total_ratings": 630,
        "plus_code": "MQHF+GH Mobile, Alabama",
        "vicinity": "560 Schillinger Rd, Mobile"
    },
    {
        "lat": 30.6788662,
        "lng": -88.2259341,
        "rating": 4,
        "place_id": "ChIJS824wWqym4gROfOoMksucAQ",
        "total_ratings": 630,
        "plus_code": "MQHF+GH Mobile, Alabama",
        "vicinity": "560 Schillinger Rd, Mobile"
    },
    {
        "lat": 30.6788662,
        "lng": -88.2259341,
        "rating": 4,
        "place_id": "ChIJS824wWqym4gROfOoMksucAQ",
        "total_ratings": 630,
        "plus_code": "MQHF+GH Mobile, Alabama",
        "vicinity": "560 Schillinger Rd, Mobile"
    },
    {
        "lat": 34.147888,
        "lng": -85.6682861,
        "rating": 4.2,
        "place_id": "ChIJSchbHDxhiogRuHUdIG5W5QQ",
        "total_ratings": 248,
        "plus_code": "48XJ+5M Centre, Alabama",
        "vicinity": "101 Piedmont Hwy, Centre"
    },
    {
        "lat": 30.47097789999999,
        "lng": -87.7017268,
        "rating": 4.2,
        "place_id": "ChIJlw1-roMSmogRtaHBwNTlw_c",
        "total_ratings": 517,
        "plus_code": "F7CX+98 Summerdale, Alabama",
        "vicinity": "1024 AL-59, Summerdale"
    },
    {
        "lat": 33.777709,
        "lng": -86.43031570000001,
        "rating": 4.4,
        "place_id": "ChIJeeLDtySdiYgRD6JUTMZz6jo",
        "total_ratings": 631,
        "plus_code": "QHH9+4V Springville, Alabama",
        "vicinity": "101 Springville Station, Springville"
    },
    {
        "lat": 33.0945437,
        "lng": -86.8538064,
        "rating": 4,
        "place_id": "ChIJC96yxa8riYgRwaSX7YCuUYI",
        "total_ratings": 684,
        "plus_code": "34VW+RF Montevallo, Alabama",
        "vicinity": "4653 AL-25, Montevallo"
    },
    {
        "lat": 30.5601013,
        "lng": -88.20663060000001,
        "rating": 4.1,
        "place_id": "ChIJ01jxDAC1m4gRVree3Enub5U",
        "total_ratings": 494,
        "plus_code": "HQ6V+28 Theodore, Alabama",
        "vicinity": "7031 Theodore Dawes Rd, Theodore"
    },
    {
        "lat": 30.8332523,
        "lng": -88.0685312,
        "rating": 4,
        "place_id": "ChIJfUswXLhWmogRjHpYGlIQCps",
        "total_ratings": 446,
        "plus_code": "RWMJ+8H Saraland, Alabama",
        "vicinity": "811 US HWY 43 SOUTH, Saraland"
    },
    {
        "lat": 33.6951748,
        "lng": -86.6824105,
        "rating": 3.9,
        "place_id": "ChIJU_F06BIJiYgRsiZGn547ndk",
        "total_ratings": 800,
        "plus_code": "M8W9+32 Pinson, Alabama",
        "vicinity": "4688 Pinson Blvd, Pinson"
    },
    {
        "lat": 30.4079036,
        "lng": -87.648101,
        "rating": 4.1,
        "place_id": "ChIJ82sXi8oXmogRjBEMetjkK70",
        "total_ratings": 685,
        "plus_code": "C952+5Q Foley, Alabama",
        "vicinity": "12615 Foley Beach Express, Foley"
    },
    {
        "lat": 32.5634436,
        "lng": -85.5031425,
        "rating": 3.9,
        "place_id": "ChIJDVkLbOnzjIgRrj7pvV2GGzY",
        "total_ratings": 913,
        "plus_code": "HF7W+9P Auburn, Alabama",
        "vicinity": "2167 S College St, Auburn"
    },
    {
        "lat": 30.4993347,
        "lng": -88.3353063,
        "rating": 4.1,
        "place_id": "ChIJR_2Z2ujHm4gRNXe5iK-h25Q",
        "total_ratings": 639,
        "plus_code": "FMX7+PV Grand Bay, Alabama",
        "vicinity": "9190 Grand Bay Wilmer Rd, Grand Bay"
    },
    {
        "lat": 32.5634436,
        "lng": -85.5031425,
        "rating": 3.9,
        "place_id": "ChIJDVkLbOnzjIgRrj7pvV2GGzY",
        "total_ratings": 913,
        "plus_code": "HF7W+9P Auburn, Alabama",
        "vicinity": "2167 S College St, Auburn"
    },
    {
        "lat": 32.370461,
        "lng": -86.17063399999999,
        "rating": 3.7,
        "place_id": "ChIJx1Ljux4tjIgRWEoUGi_qkFI",
        "total_ratings": 60,
        "plus_code": "9RCH+5P Montgomery, Alabama",
        "vicinity": "837 Taylor Rd, Montgomery"
    },
    {
        "lat": 33.4147421,
        "lng": -86.8052653,
        "rating": 4.1,
        "place_id": "ChIJD5y_wb4YiYgRuaxVDQD2we8",
        "total_ratings": 1030,
        "plus_code": "C57V+WV Vestavia Hills, Alabama",
        "vicinity": "3023 Columbiana Rd, Vestavia Hills"
    },
    {
        "lat": 30.6769209,
        "lng": -88.08278279999999,
        "rating": 3.9,
        "place_id": "ChIJEddk4wxOmogRi8nnTWiXOR0",
        "total_ratings": 760,
        "plus_code": "MWG8+QV Mobile, Alabama",
        "vicinity": "1851 Government St, Mobile"
    },
    {
        "lat": 32.370461,
        "lng": -86.17063399999999,
        "rating": 3.7,
        "place_id": "ChIJx1Ljux4tjIgRWEoUGi_qkFI",
        "total_ratings": 60,
        "plus_code": "9RCH+5P Montgomery, Alabama",
        "vicinity": "837 Taylor Rd, Montgomery"
    },
    {
        "lat": 33.2107811,
        "lng": -87.5549202,
        "rating": 4.1,
        "place_id": "ChIJGZ0i6JUChogRSM7heJM5bQc",
        "total_ratings": 271,
        "plus_code": "6C6W+82 Tuscaloosa, Alabama",
        "vicinity": "1307 University Blvd Ste B, Tuscaloosa"
    },
    {
        "lat": 33.471674,
        "lng": -86.8233673,
        "rating": 3.6,
        "place_id": "ChIJl7vza7MeiYgRMKTNr0MHf8g",
        "total_ratings": 974,
        "plus_code": "F5CG+MM Birmingham, Alabama",
        "vicinity": "316 Valley Ave, Birmingham"
    },
    {
        "lat": 33.1765247,
        "lng": -87.4695265,
        "rating": 3.9,
        "place_id": "ChIJWRc1GzCpiIgRfpyoIqF7QJU",
        "total_ratings": 792,
        "plus_code": "5GGJ+J5 Tuscaloosa, Alabama",
        "vicinity": "5001 Skyland E Blvd, Tuscaloosa"
    },
    {
        "lat": 34.6766126,
        "lng": -86.7532229,
        "rating": 4,
        "place_id": "ChIJ-Ydv1m9lYogR9Qyki4eWbWU",
        "total_ratings": 826,
        "plus_code": "M6GW+JP Madison, Alabama",
        "vicinity": "8950 Madison Blvd, Madison"
    },
    {
        "lat": 33.643019,
        "lng": -86.6841354,
        "rating": 4.1,
        "place_id": "ChIJcwyxqcEOiYgRcX3aS7-ai7E",
        "total_ratings": 690,
        "plus_code": "J8V8+68 Center Point, Alabama",
        "vicinity": "2208 Center Point Pl, Center Point"
    },
    {
        "lat": 32.5253341,
        "lng": -86.2076605,
        "rating": 3.7,
        "place_id": "ChIJF2RE2OYnjIgRuXxiDYzvbz0",
        "total_ratings": 418,
        "plus_code": "GQGR+4W Wetumpka, Alabama",
        "vicinity": "5881 US-231, Wetumpka"
    },
    {
        "lat": 31.1070539,
        "lng": -87.4771701,
        "rating": 4,
        "place_id": "ChIJBQQndbF5kIgRg_vX6IR7e-4",
        "total_ratings": 1267,
        "plus_code": "4G4F+R4 Atmore, Alabama",
        "vicinity": "78 Wind River Rd N, Atmore"
    },
    {
        "lat": 33.337234,
        "lng": -86.9170006,
        "rating": 3.9,
        "place_id": "ChIJEbKEYGnfiIgRfao4RH7wbH8",
        "total_ratings": 715,
        "plus_code": "83PM+V5 Bessemer, Alabama",
        "vicinity": "3998 Methodist Cir, Bessemer"
    },
    {
        "lat": 30.6554804,
        "lng": -87.90599809999999,
        "rating": 4.1,
        "place_id": "ChIJK_moUw9DmogRwVSyDOX5ev0",
        "total_ratings": 536,
        "plus_code": "M34V+5J Daphne, Alabama",
        "vicinity": "6781 US-90, Daphne"
    },
    {
        "lat": 32.4717152,
        "lng": -84.98709810000001,
        "rating": 4.2,
        "place_id": "ChIJ-b91Va_NjIgRcMhsYXYdOw0",
        "total_ratings": 1006,
        "plus_code": "F2C7+M5 Columbus, Georgia",
        "vicinity": "1326 Veterans Pkwy, Columbus"
    },
    {
        "lat": 32.3815372,
        "lng": -86.20745250000002,
        "rating": 3.9,
        "place_id": "ChIJK4lWD9ErjIgRu0g6PgvKKYM",
        "total_ratings": 775,
        "plus_code": "9QJV+J2 Montgomery, Alabama",
        "vicinity": "5532 Atlanta Hwy, Montgomery"
    },
    {
        "lat": 34.7920887,
        "lng": -86.6689439,
        "rating": 4.1,
        "place_id": "ChIJI8lUHY1pYogRqmFlr99iYIo",
        "total_ratings": 914,
        "plus_code": "Q8RJ+RC Huntsville, Alabama",
        "vicinity": "3745 AL-53, Huntsville"
    },
    {
        "lat": 32.4697399,
        "lng": -85.0297975,
        "rating": 4,
        "place_id": "ChIJOTNMriXMjIgRU2fFR54wimc",
        "total_ratings": 562,
        "plus_code": "FX9C+V3 Phenix City, Alabama",
        "vicinity": "BY PASS, 1141 US-280, Phenix City"
    },
    {
        "lat": 34.6280531,
        "lng": -86.5676713,
        "rating": 4.1,
        "place_id": "ChIJ4Rj3HlsNYogR-1T09Qp7Qw4",
        "total_ratings": 936,
        "plus_code": "JCHJ+6W Huntsville, Alabama",
        "vicinity": "11500 S Memorial Pkwy, Huntsville"
    },
    {
        "lat": 33.6082401,
        "lng": -86.8045782,
        "rating": 3.7,
        "place_id": "ChIJm9M3i5IEiYgRfy2g6rs5Tas",
        "total_ratings": 1209,
        "plus_code": "J55W+75 Fultondale, Alabama",
        "vicinity": "1334 Walker Chapel Rd, Fultondale"
    },
    {
        "lat": 33.4147421,
        "lng": -86.8052653,
        "rating": 4.1,
        "place_id": "ChIJD5y_wb4YiYgRuaxVDQD2we8",
        "total_ratings": 1030,
        "plus_code": "C57V+WV Vestavia Hills, Alabama",
        "vicinity": "3023 Columbiana Rd, Vestavia Hills"
    },
    {
        "lat": 34.6076764,
        "lng": -86.9790082,
        "rating": 4,
        "place_id": "ChIJRT5-5X6GYogRVq9zP-1Fk_A",
        "total_ratings": 866,
        "plus_code": "J25C+39 Decatur, Alabama",
        "vicinity": "710 6th Ave NE, Decatur"
    },
    {
        "lat": 34.7920887,
        "lng": -86.6689439,
        "rating": 4.1,
        "place_id": "ChIJI8lUHY1pYogRqmFlr99iYIo",
        "total_ratings": 914,
        "plus_code": "Q8RJ+RC Huntsville, Alabama",
        "vicinity": "3745 AL-53, Huntsville"
    },
    {
        "lat": 33.164746,
        "lng": -87.5515022,
        "rating": 4.1,
        "place_id": "ChIJef9u-BIChogRSHN2qjIIdAY",
        "total_ratings": 760,
        "plus_code": "5C7X+V9 Tuscaloosa, Alabama",
        "vicinity": "5037 Oscar Baxter Dr, Tuscaloosa"
    },
    {
        "lat": 33.3965019,
        "lng": -86.9686783,
        "rating": 3.7,
        "place_id": "ChIJVbQoDRzeiIgRZhCEq045yTM",
        "total_ratings": 572,
        "plus_code": "92WJ+HH Bessemer, Alabama",
        "vicinity": "931 9th Ave N, Bessemer"
    },
    {
        "lat": 33.4147421,
        "lng": -86.8052653,
        "rating": 4.1,
        "place_id": "ChIJD5y_wb4YiYgRuaxVDQD2we8",
        "total_ratings": 1030,
        "plus_code": "C57V+WV Vestavia Hills, Alabama",
        "vicinity": "3023 Columbiana Rd, Vestavia Hills"
    },
    {
        "lat": 34.5154425,
        "lng": -87.71773879999999,
        "rating": 4,
        "place_id": "ChIJkTY2LElZfYgRtgaCNZo5rsY",
        "total_ratings": 476,
        "plus_code": "G78J+5W Russellville, Alabama",
        "vicinity": "15485 US-43, Russellville"
    },
    {
        "lat": 30.6788662,
        "lng": -88.2259341,
        "rating": 4,
        "place_id": "ChIJS824wWqym4gROfOoMksucAQ",
        "total_ratings": 630,
        "plus_code": "MQHF+GH Mobile, Alabama",
        "vicinity": "560 Schillinger Rd, Mobile"
    },
    {
        "lat": 34.7387769,
        "lng": -86.6569303,
        "rating": 4,
        "place_id": "ChIJE9mwsPxrYogRmD5LrJFB7SI",
        "total_ratings": 950,
        "plus_code": "P8QV+G6 Huntsville, Alabama",
        "vicinity": "4896 University Dr, Huntsville"
    },
    {
        "lat": 34.344172,
        "lng": -86.5045304,
        "rating": 4.1,
        "place_id": "ChIJCcoWwZ7miYgRKmNtEHB0U68",
        "total_ratings": 427,
        "plus_code": "8FVW+M5 Arab, Alabama",
        "vicinity": "1515 N Brindlee Mountain Pkwy, Arab"
    },
    {
        "lat": 33.7926281,
        "lng": -87.24333730000001,
        "rating": 4.3,
        "place_id": "ChIJgVkt3EFgiIgR_RE9qFBq27M",
        "total_ratings": 559,
        "plus_code": "QQV4+3M Jasper, Alabama",
        "vicinity": "203 Carl Cannon Blvd, Jasper"
    },
    {
        "lat": 33.3546968,
        "lng": -86.8438783,
        "rating": 4.2,
        "place_id": "ChIJg5_Aa6AhiYgR6V0mDEt38qs",
        "total_ratings": 325,
        "plus_code": "9534+VC Hoover, Alabama",
        "vicinity": "2535 John Hawkins Pkwy, Hoover"
    },
    {
        "lat": 31.4542465,
        "lng": -86.9620803,
        "rating": 4.4,
        "place_id": "ChIJrSgBeXItkIgR7NNHHTBck4g",
        "total_ratings": 431,
        "plus_code": "F23Q+P6 Evergreen, Alabama",
        "vicinity": "832 Liberty Hill Dr, Evergreen"
    },
    {
        "lat": 33.4147421,
        "lng": -86.8052653,
        "rating": 4.1,
        "place_id": "ChIJD5y_wb4YiYgRuaxVDQD2we8",
        "total_ratings": 1030,
        "plus_code": "C57V+WV Vestavia Hills, Alabama",
        "vicinity": "3023 Columbiana Rd, Vestavia Hills"
    },
    {
        "lat": 30.5986453,
        "lng": -87.8988394,
        "rating": 4.3,
        "place_id": "ChIJdRJqqm5BmogRUzcrbpfq_zU",
        "total_ratings": 102,
        "plus_code": "H4X2+FF Daphne, Alabama",
        "vicinity": "1439 US-98, Daphne"
    },
    {
        "lat": 34.7747349,
        "lng": -86.5271854,
        "rating": 4.1,
        "place_id": "ChIJo8YXf7EVYogRD2dPW21EPZw",
        "total_ratings": 867,
        "plus_code": "QFFF+W4 Huntsville, Alabama",
        "vicinity": "36 Shields Rd, Huntsville"
    },
    {
        "lat": 32.4877347,
        "lng": -86.4110932,
        "rating": 4.1,
        "place_id": "ChIJOQ8y0ayajogRkr9V65SFx08",
        "total_ratings": 1137,
        "plus_code": "FHQQ+3H Prattville, Alabama",
        "vicinity": "791 Business Park Dr, Prattville"
    },
    {
        "lat": 30.7036852,
        "lng": -88.22514319999999,
        "rating": 3.9,
        "place_id": "ChIJ94feHCqtm4gR5-zY0E6NTZE",
        "total_ratings": 128,
        "plus_code": "PQ3F+FX Mobile, Alabama",
        "vicinity": "650 Schillinger Rd N, Mobile"
    },
    {
        "lat": 32.370461,
        "lng": -86.17063399999999,
        "rating": 3.7,
        "place_id": "ChIJx1Ljux4tjIgRWEoUGi_qkFI",
        "total_ratings": 60,
        "plus_code": "9RCH+5P Montgomery, Alabama",
        "vicinity": "837 Taylor Rd, Montgomery"
    },
    {
        "lat": 33.304663,
        "lng": -87.60413319999999,
        "rating": 3.6,
        "place_id": "ChIJZfTApPIdhogRJXFPV6dEmR8",
        "total_ratings": 37,
        "plus_code": "893W+V8 Northport, Alabama",
        "vicinity": "4601 Rose Blvd, Northport"
    },
    {
        "lat": 30.6769209,
        "lng": -88.08278279999999,
        "rating": 3.9,
        "place_id": "ChIJEddk4wxOmogRi8nnTWiXOR0",
        "total_ratings": 760,
        "plus_code": "MWG8+QV Mobile, Alabama",
        "vicinity": "1851 Government St, Mobile"
    },
    {
        "lat": 32.370461,
        "lng": -86.17063399999999,
        "rating": 3.7,
        "place_id": "ChIJx1Ljux4tjIgRWEoUGi_qkFI",
        "total_ratings": 60,
        "plus_code": "9RCH+5P Montgomery, Alabama",
        "vicinity": "837 Taylor Rd, Montgomery"
    },
    {
        "lat": 34.8083697,
        "lng": -86.9500839,
        "rating": 2.3,
        "place_id": "ChIJ__9oLVaLYogR01xSGbVNX0I",
        "total_ratings": 26,
        "plus_code": "R25X+8X Athens, Alabama",
        "vicinity": "381 US-31, Athens"
    },
    {
        "lat": 34.6076764,
        "lng": -86.9790082,
        "rating": 4,
        "place_id": "ChIJRT5-5X6GYogRVq9zP-1Fk_A",
        "total_ratings": 866,
        "plus_code": "J25C+39 Decatur, Alabama",
        "vicinity": "710 6th Ave NE, Decatur"
    },
    {
        "lat": 30.6788662,
        "lng": -88.2259341,
        "rating": 4,
        "place_id": "ChIJS824wWqym4gROfOoMksucAQ",
        "total_ratings": 630,
        "plus_code": "MQHF+GH Mobile, Alabama",
        "vicinity": "560 Schillinger Rd, Mobile"
    },
    {
        "lat": 34.7387769,
        "lng": -86.6569303,
        "rating": 4,
        "place_id": "ChIJE9mwsPxrYogRmD5LrJFB7SI",
        "total_ratings": 950,
        "plus_code": "P8QV+G6 Huntsville, Alabama",
        "vicinity": "4896 University Dr, Huntsville"
    },
    {
        "lat": 30.6788662,
        "lng": -88.2259341,
        "rating": 4,
        "place_id": "ChIJS824wWqym4gROfOoMksucAQ",
        "total_ratings": 630,
        "plus_code": "MQHF+GH Mobile, Alabama",
        "vicinity": "560 Schillinger Rd, Mobile"
    },
    {
        "lat": 33.7926281,
        "lng": -87.24333730000001,
        "rating": 4.3,
        "place_id": "ChIJgVkt3EFgiIgR_RE9qFBq27M",
        "total_ratings": 559,
        "plus_code": "QQV4+3M Jasper, Alabama",
        "vicinity": "203 Carl Cannon Blvd, Jasper"
    },
    {
        "lat": 31.2175184,
        "lng": -85.36229279999999,
        "rating": 4.2,
        "place_id": "ChIJNTT5sHuTkogReKgKP6phcd0",
        "total_ratings": 862,
        "plus_code": "6J8Q+X3 Dothan, Alabama",
        "vicinity": "1925 E Main St, Dothan"
    },
    {
        "lat": 34.6076764,
        "lng": -86.9790082,
        "rating": 4,
        "place_id": "ChIJRT5-5X6GYogRVq9zP-1Fk_A",
        "total_ratings": 866,
        "plus_code": "J25C+39 Decatur, Alabama",
        "vicinity": "710 6th Ave NE, Decatur"
    },
    {
        "lat": 30.6489695,
        "lng": -88.12658019999999,
        "rating": 4.2,
        "place_id": "ChIJWdmOTVRMmogRfI9VMl5wqD4",
        "total_ratings": 585,
        "plus_code": "JVXF+H9 Mobile, Alabama",
        "vicinity": "3671 Government Blvd, Mobile"
    },
    {
        "lat": 30.6554804,
        "lng": -87.90599809999999,
        "rating": 4.1,
        "place_id": "ChIJK_moUw9DmogRwVSyDOX5ev0",
        "total_ratings": 536,
        "plus_code": "M34V+5J Daphne, Alabama",
        "vicinity": "6781 US-90, Daphne"
    },
    {
        "lat": 31.2175184,
        "lng": -85.36229279999999,
        "rating": 4.2,
        "place_id": "ChIJNTT5sHuTkogReKgKP6phcd0",
        "total_ratings": 862,
        "plus_code": "6J8Q+X3 Dothan, Alabama",
        "vicinity": "1925 E Main St, Dothan"
    },
    {
        "lat": 34.2059374,
        "lng": -86.87556339999999,
        "rating": 4.3,
        "place_id": "ChIJj3gXE5zMiYgRV6syRvjQeHw",
        "total_ratings": 1098,
        "plus_code": "644F+9Q Cullman, Alabama",
        "vicinity": "1900 Commerce St, Cullman"
    },
    {
        "lat": 33.6155245,
        "lng": -85.82721760000001,
        "rating": 4.2,
        "place_id": "ChIJSZ7wUxWxi4gRer5JZs1rqa0",
        "total_ratings": 653,
        "plus_code": "J58F+64 Oxford, Alabama",
        "vicinity": "545 S Quintard Ave, Oxford"
    },
    {
        "lat": 32.370461,
        "lng": -86.17063399999999,
        "rating": 3.7,
        "place_id": "ChIJx1Ljux4tjIgRWEoUGi_qkFI",
        "total_ratings": 60,
        "plus_code": "9RCH+5P Montgomery, Alabama",
        "vicinity": "837 Taylor Rd, Montgomery"
    },
    {
        "lat": 32.370461,
        "lng": -86.17063399999999,
        "rating": 3.7,
        "place_id": "ChIJx1Ljux4tjIgRWEoUGi_qkFI",
        "total_ratings": 60,
        "plus_code": "9RCH+5P Montgomery, Alabama",
        "vicinity": "837 Taylor Rd, Montgomery"
    },
    {
        "lat": 33.4147421,
        "lng": -86.8052653,
        "rating": 4.1,
        "place_id": "ChIJD5y_wb4YiYgRuaxVDQD2we8",
        "total_ratings": 1030,
        "plus_code": "C57V+WV Vestavia Hills, Alabama",
        "vicinity": "3023 Columbiana Rd, Vestavia Hills"
    },
    {
        "lat": 34.8083697,
        "lng": -86.9500839,
        "rating": 2.3,
        "place_id": "ChIJ__9oLVaLYogR01xSGbVNX0I",
        "total_ratings": 26,
        "plus_code": "R25X+8X Athens, Alabama",
        "vicinity": "381 US-31, Athens"
    },
    {
        "lat": 32.8009485,
        "lng": -86.5774296,
        "rating": 4.1,
        "place_id": "ChIJkT1zfoG4jogR-b7zukeycVk",
        "total_ratings": 1006,
        "plus_code": "RC2F+92 Clanton, Alabama",
        "vicinity": "2230 7th St S, Clanton"
    },
    {
        "lat": 33.643019,
        "lng": -86.6841354,
        "rating": 4.1,
        "place_id": "ChIJcwyxqcEOiYgRcX3aS7-ai7E",
        "total_ratings": 690,
        "plus_code": "J8V8+68 Center Point, Alabama",
        "vicinity": "2208 Center Point Pl, Center Point"
    },
    {
        "lat": 34.7387769,
        "lng": -86.6569303,
        "rating": 4,
        "place_id": "ChIJE9mwsPxrYogRmD5LrJFB7SI",
        "total_ratings": 950,
        "plus_code": "P8QV+G6 Huntsville, Alabama",
        "vicinity": "4896 University Dr, Huntsville"
    },
    {
        "lat": 33.1765247,
        "lng": -87.4695265,
        "rating": 3.9,
        "place_id": "ChIJWRc1GzCpiIgRfpyoIqF7QJU",
        "total_ratings": 792,
        "plus_code": "5GGJ+J5 Tuscaloosa, Alabama",
        "vicinity": "5001 Skyland E Blvd, Tuscaloosa"
    },
    {
        "lat": 32.463491,
        "lng": -84.9263653,
        "rating": 3.9,
        "place_id": "ChIJCfRTm8Yy84gRz5i9RfV-10k",
        "total_ratings": 631,
        "plus_code": "F37F+9F Columbus, Georgia",
        "vicinity": "4005 Buena Vista Rd, Columbus"
    },
    {
        "lat": 32.463491,
        "lng": -84.9263653,
        "rating": 3.9,
        "place_id": "ChIJCfRTm8Yy84gRz5i9RfV-10k",
        "total_ratings": 631,
        "plus_code": "F37F+9F Columbus, Georgia",
        "vicinity": "4005 Buena Vista Rd, Columbus"
    },
    {
        "lat": 32.3801683,
        "lng": -86.30493829999999,
        "rating": 3.9,
        "place_id": "ChIJFfwJYXCBjogRLFg62m3arOM",
        "total_ratings": 779,
        "plus_code": "9MJW+32 Montgomery, Alabama",
        "vicinity": "301 Madison Ave, Montgomery"
    },
    {
        "lat": 32.6444919,
        "lng": -85.35466509999999,
        "rating": 3.8,
        "place_id": "ChIJP5kSY2CTjIgR_T1FX6F-5LQ",
        "total_ratings": 778,
        "plus_code": "JJVW+R5 Opelika, Alabama",
        "vicinity": "907 Fox Run Pkwy, Opelika"
    },
    {
        "lat": 31.8731412,
        "lng": -85.1534659,
        "rating": 3.8,
        "place_id": "ChIJC5m9Zw5HjYgRJkYvFnP8wY0",
        "total_ratings": 707,
        "plus_code": "VRFW+7J Eufaula, Alabama",
        "vicinity": "1551 S Eufaula Ave, Eufaula"
    },
    {
        "lat": 33.6030558,
        "lng": -86.2830352,
        "rating": 4.3,
        "place_id": "ChIJy-WoaQl9iYgRX1HjMfHV1qk",
        "total_ratings": 1150,
        "plus_code": "JP38+6Q Pell City, Alabama",
        "vicinity": "1203 Martin St N, Pell City"
    },
    {
        "lat": 33.5642444,
        "lng": -86.5223615,
        "rating": 4.3,
        "place_id": "ChIJ_3BjU4xtiYgR0tdGeniZVvU",
        "total_ratings": 768,
        "plus_code": "HF7H+P3 Leeds, Alabama",
        "vicinity": "1850 Ashville Rd, Leeds"
    },
    {
        "lat": 32.3643423,
        "lng": -86.2707424,
        "rating": 4,
        "place_id": "ChIJ11VBhcOBjogR-X2ZpHpJjUk",
        "total_ratings": 846,
        "plus_code": "9P7H+PM Montgomery, Alabama",
        "vicinity": "2615 Zelda Rd, Montgomery"
    },
    {
        "lat": 30.2495651,
        "lng": -87.68171919999999,
        "rating": 4.1,
        "place_id": "ChIJ8Vktx74EmogRHMOB-mgto2U",
        "total_ratings": 1390,
        "plus_code": "68X9+V8 Gulf Shores, Alabama",
        "vicinity": "382 E Beach Blvd, Gulf Shores"
    },
    {
        "lat": 34.2767714,
        "lng": -86.20311579999999,
        "rating": 4.2,
        "place_id": "ChIJjVpT0jMDiogRi6RMHlHzFiI",
        "total_ratings": 532,
        "plus_code": "7QGW+PP Albertville, Alabama",
        "vicinity": "80 AL-75, Albertville"
    },
    {
        "lat": 33.9973818,
        "lng": -86.00398240000001,
        "rating": 4.2,
        "place_id": "ChIJS4Ix-1I5iogRof7adRlrT0I",
        "total_ratings": 664,
        "plus_code": "XXWW+XC Gadsden, Alabama",
        "vicinity": "1000 Rainbow Dr, Gadsden"
    },
    {
        "lat": 33.6155245,
        "lng": -85.82721760000001,
        "rating": 4.2,
        "place_id": "ChIJSZ7wUxWxi4gRer5JZs1rqa0",
        "total_ratings": 653,
        "plus_code": "J58F+64 Oxford, Alabama",
        "vicinity": "545 S Quintard Ave, Oxford"
    },
    {
        "lat": 33.6524356,
        "lng": -86.8193838,
        "rating": 4,
        "place_id": "ChIJtYdnqgkEiYgR1kfTsfTMH6Y",
        "total_ratings": 911,
        "plus_code": "M52J+X6 Gardendale, Alabama",
        "vicinity": "500 Fieldstown Rd, Gardendale"
    },
    {
        "lat": 30.6478846,
        "lng": -87.7598259,
        "rating": 4.2,
        "place_id": "ChIJqcD-GShvmogRlY6tjN30NuI",
        "total_ratings": 934,
        "plus_code": "J6XR+53 Loxley, Alabama",
        "vicinity": "13101 Flowerwood Rd, Loxley"
    },
    {
        "lat": 33.2987255,
        "lng": -86.8096182,
        "rating": 4.1,
        "place_id": "ChIJ6WLUvg8kiYgRTwrVKuDyaXE",
        "total_ratings": 716,
        "plus_code": "75XR+F5 Pelham, Alabama",
        "vicinity": "2965 Pelham Pkwy, Pelham"
    },
    {
        "lat": 30.3758521,
        "lng": -87.6837099,
        "rating": 4.1,
        "place_id": "ChIJg0YjZjMOmogREAhkWNTLWr4",
        "total_ratings": 1089,
        "plus_code": "98G8+9G Foley, Alabama",
        "vicinity": "2660 S McKenzie St, Foley"
    },
    {
        "lat": 34.6076764,
        "lng": -86.9790082,
        "rating": 4,
        "place_id": "ChIJRT5-5X6GYogRVq9zP-1Fk_A",
        "total_ratings": 866,
        "plus_code": "J25C+39 Decatur, Alabama",
        "vicinity": "710 6th Ave NE, Decatur"
    },
    {
        "lat": 30.2495651,
        "lng": -87.68171919999999,
        "rating": 4.1,
        "place_id": "ChIJ8Vktx74EmogRHMOB-mgto2U",
        "total_ratings": 1390,
        "plus_code": "68X9+V8 Gulf Shores, Alabama",
        "vicinity": "382 E Beach Blvd, Gulf Shores"
    },
    {
        "lat": 30.8789113,
        "lng": -87.78443680000001,
        "rating": 4.1,
        "place_id": "ChIJHbWGuweKmogRv2pFHWBwpYM",
        "total_ratings": 616,
        "plus_code": "V6H8+H6 Bay Minette, Alabama",
        "vicinity": "105 McMeans Ave, Bay Minette"
    },
    {
        "lat": 30.802772,
        "lng": -88.10018160000001,
        "rating": 4,
        "place_id": "ChIJ2Yy5DRBUmogRdrxP-tEsA5A",
        "total_ratings": 770,
        "plus_code": "RV3X+4W Saraland, Alabama",
        "vicinity": "1204 Industrial Pkwy, Saraland"
    },
    {
        "lat": 34.4369549,
        "lng": -85.75155409999999,
        "rating": 4.2,
        "place_id": "ChIJqUVin-HXYYgRGYYrE7f6Iqk",
        "total_ratings": 681,
        "plus_code": "C6PX+Q9 Fort Payne, Alabama",
        "vicinity": "1410 Glenn Blvd SW, Fort Payne"
    },
    {
        "lat": 33.4216369,
        "lng": -111.8922076,
        "rating": 4,
        "place_id": "ChIJr7Q-KkUIK4cRfvaXWIhCZO0",
        "total_ratings": 1483,
        "plus_code": "C4C5+M4 Tempe, Arizona",
        "vicinity": "2189 E University Dr, Tempe"
    },
    {
        "lat": 33.6834423,
        "lng": -112.116232,
        "rating": 4.4,
        "place_id": "ChIJXQvh_2ZvK4cRI9swWYieZiE",
        "total_ratings": 1431,
        "plus_code": "MVMM+9G Phoenix, Arizona",
        "vicinity": "2627 W Deer Valley Rd, Phoenix"
    },
    {
        "lat": 32.1345165,
        "lng": -110.9320041,
        "rating": 4.2,
        "place_id": "ChIJ1ZpYgxl71oYRvVpV5WRTGiE",
        "total_ratings": 979,
        "plus_code": "43M9+R6 Tucson, Arizona",
        "vicinity": "2701 E Valencia Rd, Tucson"
    },
    {
        "lat": 33.502495,
        "lng": -111.9330347,
        "rating": 4.3,
        "place_id": "ChIJEYnV3pkLK4cRv630al9_4rU",
        "total_ratings": 846,
        "plus_code": "G338+2Q Scottsdale, Arizona",
        "vicinity": "6840 E Camelback Rd, Scottsdale"
    },
    {
        "lat": 32.2064474,
        "lng": -110.9809646,
        "rating": 4.1,
        "place_id": "ChIJW54Wc8Rw1oYRlRTOkXHPpAU",
        "total_ratings": 1572,
        "plus_code": "6249+HJ Tucson, Arizona",
        "vicinity": "709 W Starr Pass Blvd, Tucson"
    },
    {
        "lat": 33.3939159,
        "lng": -111.6004426,
        "rating": 3.9,
        "place_id": "ChIJ138pXwexK4cRUnrbO-3yphs",
        "total_ratings": 2744,
        "plus_code": "99VX+HR Mesa, Arizona",
        "vicinity": "10662 E Southern Ave, Mesa"
    },
    {
        "lat": 33.3485639,
        "lng": -111.9550389,
        "rating": 4.2,
        "place_id": "ChIJk0uBgNcFK4cRPC0JGeWkQyk",
        "total_ratings": 1055,
        "plus_code": "82XV+CX Tempe, Arizona",
        "vicinity": "1125 W Elliot Rd, Tempe"
    },
    {
        "lat": 33.3729257,
        "lng": -111.789538,
        "rating": 4.3,
        "place_id": "ChIJP_eTOeGoK4cR1Fp-ORE5O4s",
        "total_ratings": 1450,
        "plus_code": "96F6+65 Gilbert, Arizona",
        "vicinity": "1235 N Gilbert Rd, Gilbert"
    },
    {
        "lat": 33.502495,
        "lng": -111.9330347,
        "rating": 4.3,
        "place_id": "ChIJEYnV3pkLK4cRv630al9_4rU",
        "total_ratings": 846,
        "plus_code": "G338+2Q Scottsdale, Arizona",
        "vicinity": "6840 E Camelback Rd, Scottsdale"
    },
    {
        "lat": 33.6834423,
        "lng": -112.116232,
        "rating": 4.4,
        "place_id": "ChIJXQvh_2ZvK4cRI9swWYieZiE",
        "total_ratings": 1431,
        "plus_code": "MVMM+9G Phoenix, Arizona",
        "vicinity": "2627 W Deer Valley Rd, Phoenix"
    },
    {
        "lat": 32.2064474,
        "lng": -110.9809646,
        "rating": 4.1,
        "place_id": "ChIJW54Wc8Rw1oYRlRTOkXHPpAU",
        "total_ratings": 1572,
        "plus_code": "6249+HJ Tucson, Arizona",
        "vicinity": "709 W Starr Pass Blvd, Tucson"
    },
    {
        "lat": 33.4156438,
        "lng": -112.0080666,
        "rating": 4.1,
        "place_id": "ChIJ0TBzD1MOK4cR8Nr7viPWTZw",
        "total_ratings": 2212,
        "plus_code": "CX8R+6R Phoenix, Arizona",
        "vicinity": "3363 E University Dr, Phoenix"
    },
    {
        "lat": 32.1345165,
        "lng": -110.9320041,
        "rating": 4.2,
        "place_id": "ChIJ1ZpYgxl71oYRvVpV5WRTGiE",
        "total_ratings": 979,
        "plus_code": "43M9+R6 Tucson, Arizona",
        "vicinity": "2701 E Valencia Rd, Tucson"
    },
    {
        "lat": 33.4552655,
        "lng": -112.3414376,
        "rating": 4.2,
        "place_id": "ChIJjWlgo8k4K4cRg1CVcHeXzpQ",
        "total_ratings": 2037,
        "plus_code": "FM45+3C Goodyear, Arizona",
        "vicinity": "820 N Dysart Rd, Goodyear"
    },
    {
        "lat": 33.4552655,
        "lng": -112.3414376,
        "rating": 4.2,
        "place_id": "ChIJjWlgo8k4K4cRg1CVcHeXzpQ",
        "total_ratings": 2037,
        "plus_code": "FM45+3C Goodyear, Arizona",
        "vicinity": "820 N Dysart Rd, Goodyear"
    },
    {
        "lat": 34.7621539,
        "lng": -92.31033479999999,
        "rating": 3.8,
        "place_id": "ChIJeYoVOFCj0ocR60EvaEn2rjQ",
        "total_ratings": 769,
        "plus_code": "QM6Q+VR Little Rock, Arkansas",
        "vicinity": "1220 Rebsamen Park Rd, Little Rock"
    },
    {
        "lat": 34.8845641,
        "lng": -92.3829241,
        "rating": 4.1,
        "place_id": "ChIJ8YnHA9ie0ocRh0f6ogRyqRk",
        "total_ratings": 751,
        "plus_code": "VJM8+RR Maumelle, Arkansas",
        "vicinity": "20514 AR-365, Maumelle"
    },
    {
        "lat": 34.754764,
        "lng": -92.3935264,
        "rating": 3.9,
        "place_id": "ChIJZV6ryk2h0ocR2HPUjJmW2tk",
        "total_ratings": 789,
        "plus_code": "QJ34+WH Little Rock, Arkansas",
        "vicinity": "201 N Shackleford Rd, Little Rock"
    },
    {
        "lat": 34.6205473,
        "lng": -92.4988504,
        "rating": 4.1,
        "place_id": "ChIJB3C-L6pXzYcRrW659XNxPoE",
        "total_ratings": 960,
        "plus_code": "JGC2+6F Bryant, Arkansas",
        "vicinity": "105 W Commerce St, Bryant"
    },
    {
        "lat": 34.754764,
        "lng": -92.3935264,
        "rating": 3.9,
        "place_id": "ChIJZV6ryk2h0ocR2HPUjJmW2tk",
        "total_ratings": 789,
        "plus_code": "QJ34+WH Little Rock, Arkansas",
        "vicinity": "201 N Shackleford Rd, Little Rock"
    },
    {
        "lat": 35.069317,
        "lng": -91.9102054,
        "rating": 4.1,
        "place_id": "ChIJIXKEE4D70ocRXVNDbRXTmmk",
        "total_ratings": 656,
        "plus_code": "339Q+PW Beebe, Arkansas",
        "vicinity": "2200 W Center St, Beebe"
    },
    {
        "lat": 34.9771182,
        "lng": -92.02726469999999,
        "rating": 4.1,
        "place_id": "ChIJMdNAHQDv0ocRdoolPUgZsiw",
        "total_ratings": 674,
        "plus_code": "XXGF+R3 Cabot, Arkansas",
        "vicinity": "1106 W Main St, Cabot"
    },
    {
        "lat": 35.4539711,
        "lng": -93.4653835,
        "rating": 4.1,
        "place_id": "ChIJSxMeKLRrzIcR9uTz0_o2cd8",
        "total_ratings": 604,
        "plus_code": "FG3M+HQ Clarksville, Arkansas",
        "vicinity": "1238 D, S Rogers St, Clarksville"
    },
    {
        "lat": 35.3045006,
        "lng": -93.1372832,
        "rating": 4.2,
        "place_id": "ChIJkzytgqpTzIcRYZMk-m6jAcI",
        "total_ratings": 356,
        "plus_code": "8V37+R3 Russellville, Arkansas",
        "vicinity": "2404 N Arkansas Ave, Russellville"
    },
    {
        "lat": 35.3864691,
        "lng": -94.4204729,
        "rating": 4.6,
        "place_id": "ChIJCTDGhpdMyocRjleQDi-sWBY",
        "total_ratings": 871,
        "plus_code": "9HPH+HR Fort Smith, Arkansas",
        "vicinity": "115 N 10th St, Fort Smith"
    },
    {
        "lat": 34.4445653,
        "lng": -93.08964639999999,
        "rating": 4.3,
        "place_id": "ChIJAaFkU2bVMoYR1_5uw5MXkh0",
        "total_ratings": 835,
        "plus_code": "CWV6+R5 Hot Springs, Arkansas",
        "vicinity": "4761 Central Ave, Hot Springs"
    },
    {
        "lat": 33.6799189,
        "lng": -93.60422799999999,
        "rating": 3.9,
        "place_id": "ChIJac0xDhWDM4YR5CPfhRErPjs",
        "total_ratings": 708,
        "plus_code": "M9HW+X8 Hope, Arkansas",
        "vicinity": "1407 N Hervey St, Hope"
    },
    {
        "lat": 35.8064609,
        "lng": -90.70180839999999,
        "rating": 4.1,
        "place_id": "ChIJGdfauyQv1IcRGoN7FhH9vEM",
        "total_ratings": 905,
        "plus_code": "R74X+H7 Jonesboro, Arkansas",
        "vicinity": "719 E Parker Rd, Jonesboro"
    },
    {
        "lat": 34.9461773,
        "lng": -92.0610195,
        "rating": 4.2,
        "place_id": "ChIJI1GV56_u0ocRCz1Hsr0SZtk",
        "total_ratings": 643,
        "plus_code": "WWWQ+FJ Cabot, Arkansas",
        "vicinity": "3224 Bill Foster Memorial Hwy W, Cabot"
    },
    {
        "lat": 36.1860991,
        "lng": -94.542822,
        "rating": 4.5,
        "place_id": "ChIJAQDQk6KiyYcRvfhEkDFcJVo",
        "total_ratings": 284,
        "plus_code": "5FP4+FV Siloam Springs, Arkansas",
        "vicinity": "201 W University St #2665, Siloam Springs"
    },
    {
        "lat": 34.7500895,
        "lng": -92.40757219999999,
        "rating": 4.1,
        "place_id": "ChIJqwaLy8ym0ocRom0g9JygFPw",
        "total_ratings": 845,
        "plus_code": "QH2R+3W Little Rock, Arkansas",
        "vicinity": "500 Bowman Rd, Little Rock"
    },
    {
        "lat": 34.8064188,
        "lng": -91.890585,
        "rating": 4.2,
        "place_id": "ChIJ9ZnoXinv0ocR6_IBBkvzXac",
        "total_ratings": 971,
        "plus_code": "R445+HQ Lonoke, Arkansas",
        "vicinity": "100 Fannie Ln, Lonoke"
    },
    {
        "lat": 34.7976195,
        "lng": -92.23735529999999,
        "rating": 4,
        "place_id": "ChIJ9altSDO80ocR_zFAfEZQQ6w",
        "total_ratings": 934,
        "plus_code": "QQX7+22 North Little Rock, Arkansas",
        "vicinity": "2505 McCain Blvd, North Little Rock"
    },
    {
        "lat": 34.754764,
        "lng": -92.3935264,
        "rating": 3.9,
        "place_id": "ChIJZV6ryk2h0ocR2HPUjJmW2tk",
        "total_ratings": 789,
        "plus_code": "QJ34+WH Little Rock, Arkansas",
        "vicinity": "201 N Shackleford Rd, Little Rock"
    },
    {
        "lat": 36.0604165,
        "lng": -90.52288639999999,
        "rating": 4.4,
        "place_id": "ChIJbxMY6p181ocRHsqDHeaM-I4",
        "total_ratings": 290,
        "plus_code": "3F6G+5V Paragould, Arkansas",
        "vicinity": "2801 W Kingshighway, Paragould"
    },
    {
        "lat": 35.3864691,
        "lng": -94.4204729,
        "rating": 4.6,
        "place_id": "ChIJCTDGhpdMyocRjleQDi-sWBY",
        "total_ratings": 871,
        "plus_code": "9HPH+HR Fort Smith, Arkansas",
        "vicinity": "115 N 10th St, Fort Smith"
    },
    {
        "lat": 36.1831576,
        "lng": -94.1383709,
        "rating": 4.2,
        "place_id": "ChIJiaB5_k5ryYcRawKLXJsuLvw",
        "total_ratings": 715,
        "plus_code": "5VM6+7M Springdale, Arkansas",
        "vicinity": "219 S Thompson St, Springdale"
    },
    {
        "lat": 34.8150195,
        "lng": -92.2035593,
        "rating": 4,
        "place_id": "ChIJfxeh-EG-0ocR83NSAwnXoWE",
        "total_ratings": 755,
        "plus_code": "RQ8W+2H Sherwood, Arkansas",
        "vicinity": "6501 Warden Rd, Sherwood"
    },
    {
        "lat": 36.385912,
        "lng": -94.22058969999999,
        "rating": 4.5,
        "place_id": "ChIJ9beSvRoXyYcR2PYpaKUdry4",
        "total_ratings": 352,
        "plus_code": "9QPH+9Q Bentonville, Arkansas",
        "vicinity": "1140 N Walton Blvd Ste 3, Bentonville"
    },
    {
        "lat": 36.3342034,
        "lng": -94.13433049999999,
        "rating": 4.5,
        "place_id": "ChIJvw1AwzwXyYcR99cIJsX_1RM",
        "total_ratings": 546,
        "plus_code": "8VM8+M7 Rogers, Arkansas",
        "vicinity": "1233 W Walnut St, Rogers"
    },
    {
        "lat": 35.2175957,
        "lng": -94.27240289999999,
        "rating": 3.8,
        "place_id": "ChIJg-6YSZypy4cRrKPV2L1Ugz4",
        "total_ratings": 141,
        "plus_code": "6P9H+22 Greenwood, Arkansas",
        "vicinity": "937 W Center St, Greenwood"
    },
    {
        "lat": 34.6205473,
        "lng": -92.4988504,
        "rating": 4.1,
        "place_id": "ChIJB3C-L6pXzYcRrW659XNxPoE",
        "total_ratings": 960,
        "plus_code": "JGC2+6F Bryant, Arkansas",
        "vicinity": "105 W Commerce St, Bryant"
    },
    {
        "lat": 35.0918771,
        "lng": -92.4196989,
        "rating": 4.1,
        "place_id": "ChIJBxx6n9KD0ocRdHS7qW76YHg",
        "total_ratings": 1101,
        "plus_code": "3HRJ+Q4 Conway, Arkansas",
        "vicinity": "818 E Oak St, Conway"
    },
    {
        "lat": 34.1196939,
        "lng": -93.0540106,
        "rating": 4.5,
        "place_id": "ChIJ_YVclCveMoYR2LpcKME4j2U",
        "total_ratings": 262,
        "plus_code": "4W9W+W9 Arkadelphia, Arkansas",
        "vicinity": "614 Main St, Arkadelphia"
    },
    {
        "lat": 34.6205473,
        "lng": -92.4988504,
        "rating": 4.1,
        "place_id": "ChIJB3C-L6pXzYcRrW659XNxPoE",
        "total_ratings": 960,
        "plus_code": "JGC2+6F Bryant, Arkansas",
        "vicinity": "105 W Commerce St, Bryant"
    },
    {
        "lat": 36.0541862,
        "lng": -94.19199189999999,
        "rating": 4.2,
        "place_id": "ChIJ89vZswBvyYcRkEpfeZOtnm0",
        "total_ratings": 1184,
        "plus_code": "3R35+M6 Fayetteville, Arkansas",
        "vicinity": "2311 M.L.K. Jr Blvd, Fayetteville"
    },
    {
        "lat": 34.754764,
        "lng": -92.3935264,
        "rating": 3.9,
        "place_id": "ChIJZV6ryk2h0ocR2HPUjJmW2tk",
        "total_ratings": 789,
        "plus_code": "QJ34+WH Little Rock, Arkansas",
        "vicinity": "201 N Shackleford Rd, Little Rock"
    },
    {
        "lat": 35.1105434,
        "lng": -92.439262,
        "rating": 4.2,
        "place_id": "ChIJrXeP-FmnxYcRqNTXORW1opE",
        "total_ratings": 1066,
        "plus_code": "4H66+67 Conway, Arkansas",
        "vicinity": "990 HWY 65 N, Conway"
    },
    {
        "lat": 34.4445653,
        "lng": -93.08964639999999,
        "rating": 4.3,
        "place_id": "ChIJAaFkU2bVMoYR1_5uw5MXkh0",
        "total_ratings": 835,
        "plus_code": "CWV6+R5 Hot Springs, Arkansas",
        "vicinity": "4761 Central Ave, Hot Springs"
    },
    {
        "lat": 34.7621539,
        "lng": -92.31033479999999,
        "rating": 3.8,
        "place_id": "ChIJeYoVOFCj0ocR60EvaEn2rjQ",
        "total_ratings": 769,
        "plus_code": "QM6Q+VR Little Rock, Arkansas",
        "vicinity": "1220 Rebsamen Park Rd, Little Rock"
    },
    {
        "lat": 35.031594,
        "lng": -90.7892906,
        "rating": 3.7,
        "place_id": "ChIJY_GaZNXv1IcRkHh7fbLDz8U",
        "total_ratings": 814,
        "plus_code": "26J6+M7 Forrest City, Arkansas",
        "vicinity": "2340 N Washington St, Forrest City"
    },
    {
        "lat": 34.9053746,
        "lng": -91.1985697,
        "rating": 4,
        "place_id": "ChIJfW7h7zOe1IcRZz1YoT-8rG8",
        "total_ratings": 652,
        "plus_code": "WR42+4H Brinkley, Arkansas",
        "vicinity": "1407 N Main St, Brinkley"
    },
    {
        "lat": 35.2500342,
        "lng": -91.69268,
        "rating": 4,
        "place_id": "ChIJFevvnPao04cRfmTQlBtNSNA",
        "total_ratings": 559,
        "plus_code": "7824+2W Searcy, Arkansas",
        "vicinity": "3305 E Race Ave, Searcy"
    },
    {
        "lat": 35.8064609,
        "lng": -90.70180839999999,
        "rating": 4.1,
        "place_id": "ChIJGdfauyQv1IcRGoN7FhH9vEM",
        "total_ratings": 905,
        "plus_code": "R74X+H7 Jonesboro, Arkansas",
        "vicinity": "719 E Parker Rd, Jonesboro"
    },
    {
        "lat": 36.1831576,
        "lng": -94.1383709,
        "rating": 4.2,
        "place_id": "ChIJiaB5_k5ryYcRawKLXJsuLvw",
        "total_ratings": 715,
        "plus_code": "5VM6+7M Springdale, Arkansas",
        "vicinity": "219 S Thompson St, Springdale"
    },
    {
        "lat": 34.3931676,
        "lng": -92.82832119999999,
        "rating": 4.2,
        "place_id": "ChIJZzBO9yXNMoYR15_tZ3kMLpE",
        "total_ratings": 991,
        "plus_code": "95VC+7M Malvern, Arkansas",
        "vicinity": "1921 Martin Luther King Blvd, Malvern"
    },
    {
        "lat": 35.1705197,
        "lng": -92.7170879,
        "rating": 4.2,
        "place_id": "ChIJIY3B55Z1zYcR91jSinIgTGA",
        "total_ratings": 699,
        "plus_code": "57CM+65 Morrilton, Arkansas",
        "vicinity": "1410 AR-9 BUS, Morrilton"
    },
    {
        "lat": 36.3585932,
        "lng": -94.2682099,
        "rating": 4.3,
        "place_id": "ChIJTQQZXy8PyYcRNjh27OJiRLc",
        "total_ratings": 582,
        "plus_code": "9P5J+CP Centerton, Arkansas",
        "vicinity": "960 E Centerton Blvd, Centerton"
    },
    {
        "lat": 35.3045006,
        "lng": -93.1372832,
        "rating": 4.2,
        "place_id": "ChIJkzytgqpTzIcRYZMk-m6jAcI",
        "total_ratings": 356,
        "plus_code": "8V37+R3 Russellville, Arkansas",
        "vicinity": "2404 N Arkansas Ave, Russellville"
    },
    {
        "lat": 34.7976195,
        "lng": -92.23735529999999,
        "rating": 4,
        "place_id": "ChIJ9altSDO80ocR_zFAfEZQQ6w",
        "total_ratings": 934,
        "plus_code": "QQX7+22 North Little Rock, Arkansas",
        "vicinity": "2505 McCain Blvd, North Little Rock"
    },
    {
        "lat": 34.754764,
        "lng": -92.3935264,
        "rating": 3.9,
        "place_id": "ChIJZV6ryk2h0ocR2HPUjJmW2tk",
        "total_ratings": 789,
        "plus_code": "QJ34+WH Little Rock, Arkansas",
        "vicinity": "201 N Shackleford Rd, Little Rock"
    },
    {
        "lat": 40.1686959,
        "lng": -105.1019257,
        "rating": 4.5,
        "place_id": "ChIJdTCsMgv5a4cRJsUrOdu3f1Q",
        "total_ratings": 3585,
        "plus_code": "5V9X+F6 Longmont, Colorado",
        "vicinity": "540 Main St, Longmont"
    },
    {
        "lat": 39.623542,
        "lng": -104.89606,
        "rating": 4.6,
        "place_id": "ChIJ2fCJTPmGbIcRpBg3b0Dazq8",
        "total_ratings": 2160,
        "plus_code": "J4F3+CH Greenwood Village, Colorado",
        "vicinity": "8000 E Belleview Ave F-10, Greenwood Village"
    },
    {
        "lat": 39.587544,
        "lng": -104.8793068,
        "rating": 4.2,
        "place_id": "ChIJs2KfuNmFbIcR0tvSqmU5QwE",
        "total_ratings": 8556,
        "plus_code": "H4QC+27 Centennial, Colorado",
        "vicinity": "7101 S Clinton St, Centennial"
    },
    {
        "lat": 38.8760764,
        "lng": -104.8369937,
        "rating": 4.2,
        "place_id": "ChIJrbEHHeVPE4cR58J1XkyODho",
        "total_ratings": 2312,
        "plus_code": "V5G7+C5 Colorado Springs, Colorado",
        "vicinity": "755 W Fillmore St, Colorado Springs"
    },
    {
        "lat": 39.623542,
        "lng": -104.89606,
        "rating": 4.6,
        "place_id": "ChIJ2fCJTPmGbIcRpBg3b0Dazq8",
        "total_ratings": 2160,
        "plus_code": "J4F3+CH Greenwood Village, Colorado",
        "vicinity": "8000 E Belleview Ave F-10, Greenwood Village"
    },
    {
        "lat": 39.4111736,
        "lng": -104.8730544,
        "rating": 4.7,
        "place_id": "ChIJV4ybpXmZbIcRB4wBp2Vg4Qo",
        "total_ratings": 178,
        "plus_code": "C46G+FQ Castle Rock, Colorado",
        "vicinity": "4991 Factory Shops Blvd Suite A-110, Castle Rock"
    },
    {
        "lat": 38.8760764,
        "lng": -104.8369937,
        "rating": 4.2,
        "place_id": "ChIJrbEHHeVPE4cR58J1XkyODho",
        "total_ratings": 2312,
        "plus_code": "V5G7+C5 Colorado Springs, Colorado",
        "vicinity": "755 W Fillmore St, Colorado Springs"
    },
    {
        "lat": 38.8760764,
        "lng": -104.8369937,
        "rating": 4.2,
        "place_id": "ChIJrbEHHeVPE4cR58J1XkyODho",
        "total_ratings": 2312,
        "plus_code": "V5G7+C5 Colorado Springs, Colorado",
        "vicinity": "755 W Fillmore St, Colorado Springs"
    },
    {
        "lat": 40.5226595,
        "lng": -105.0229297,
        "rating": 4.6,
        "place_id": "ChIJLwnurU-zbocRgNn3fcajwZk",
        "total_ratings": 1246,
        "plus_code": "GXFG+3R Fort Collins, Colorado",
        "vicinity": "2909 E Harmony Rd #140, Fort Collins"
    },
    {
        "lat": 39.7611874,
        "lng": -104.9817354,
        "rating": 4.6,
        "place_id": "ChIJH4pgGx95bIcRUArM77N9zr0",
        "total_ratings": 1160,
        "plus_code": "Q269+F8 Denver, Colorado",
        "vicinity": "2862 Larimer St, Denver"
    },
    {
        "lat": 39.5298919,
        "lng": -75.8122482,
        "rating": 4.5,
        "place_id": "ChIJc9A8iBukx4kRoSpQDRVzmKg",
        "total_ratings": 3373,
        "plus_code": "G5HQ+X4 Chesapeake City, Maryland",
        "vicinity": "208 Bank St, Chesapeake City"
    },
    {
        "lat": 39.28446599999999,
        "lng": -75.59358590000001,
        "rating": 4,
        "place_id": "ChIJ2-Fpl-Fwx4kRknP1DN13Fbg",
        "total_ratings": 1021,
        "plus_code": "7CM4+QG Smyrna, Delaware",
        "vicinity": "37 S Cory Ln, Smyrna"
    },
    {
        "lat": 39.1771242,
        "lng": -75.53000949999999,
        "rating": 4.4,
        "place_id": "ChIJL1wQbjV7x4kRfBR8Vjvw7vY",
        "total_ratings": 1225,
        "plus_code": "5FG9+VX Dover, Delaware",
        "vicinity": "950 N State St, Dover"
    },
    {
        "lat": 30.183565,
        "lng": -85.8168836,
        "rating": 4.3,
        "place_id": "ChIJv9ukPS2Jk4gRbPm8ylcHmBs",
        "total_ratings": 1089,
        "plus_code": "55MM+C6 Panama City Beach, Florida",
        "vicinity": "11126 Front Beach Rd, Panama City Beach"
    },
    {
        "lat": 30.4928821,
        "lng": -87.2620905,
        "rating": 4.4,
        "place_id": "ChIJexfNU9O_kIgRPdOpsnrGvGY",
        "total_ratings": 1022,
        "plus_code": "FPVQ+55 Pensacola, Florida",
        "vicinity": "6913 Pensacola Blvd, Pensacola"
    },
    {
        "lat": 30.4928821,
        "lng": -87.2620905,
        "rating": 4.4,
        "place_id": "ChIJexfNU9O_kIgRPdOpsnrGvGY",
        "total_ratings": 1022,
        "plus_code": "FPVQ+55 Pensacola, Florida",
        "vicinity": "6913 Pensacola Blvd, Pensacola"
    },
    {
        "lat": 30.2639204,
        "lng": -85.97275119999999,
        "rating": 4.2,
        "place_id": "ChIJYXAVdJryk4gRj4pGcefzk3Q",
        "total_ratings": 749,
        "plus_code": "727G+HV Panama City Beach, Florida",
        "vicinity": "22913 Panama City Beach Pkwy, Panama City Beach"
    },
    {
        "lat": 30.2821219,
        "lng": -87.51744599999999,
        "rating": 4.1,
        "place_id": "ChIJIw3-qUmokIgRO3QeFxWt40o",
        "total_ratings": 610,
        "plus_code": "7FJM+R2 Pensacola, Florida",
        "vicinity": "17352 Perdido Key Dr, Pensacola"
    },
    {
        "lat": 30.5217458,
        "lng": -86.50188229999999,
        "rating": 4.1,
        "place_id": "ChIJv6LQfylqkYgRJ7N5Y5-Obaw",
        "total_ratings": 718,
        "plus_code": "GFCX+M6 Niceville, Florida",
        "vicinity": "628 N John Sims Pkwy, Niceville"
    },
    {
        "lat": 30.485586,
        "lng": -84.31476889999999,
        "rating": 4.1,
        "place_id": "ChIJaYd7ni307IgREtRNclwKgCY",
        "total_ratings": 1010,
        "plus_code": "FMPP+53 Tallahassee, Florida",
        "vicinity": "3210 N Monroe St, Tallahassee"
    },
    {
        "lat": 30.183565,
        "lng": -85.8168836,
        "rating": 4.3,
        "place_id": "ChIJv9ukPS2Jk4gRbPm8ylcHmBs",
        "total_ratings": 1089,
        "plus_code": "55MM+C6 Panama City Beach, Florida",
        "vicinity": "11126 Front Beach Rd, Panama City Beach"
    },
    {
        "lat": 30.2201645,
        "lng": -85.6498355,
        "rating": 4.2,
        "place_id": "ChIJ7R70TqmDk4gRRmqai5vt85Q",
        "total_ratings": 919,
        "plus_code": "69C2+33 Lynn Haven, Florida",
        "vicinity": "2502 FL-77, Lynn Haven"
    },
    {
        "lat": 30.3573301,
        "lng": -87.1639666,
        "rating": 4.3,
        "place_id": "ChIJBZgRll_GkIgRS2F42yg4OWI",
        "total_ratings": 810,
        "plus_code": "9R4P+WC Gulf Breeze, Florida",
        "vicinity": "831 Gulf Breeze Pkwy, Gulf Breeze"
    },
    {
        "lat": 30.4928821,
        "lng": -87.2620905,
        "rating": 4.4,
        "place_id": "ChIJexfNU9O_kIgRPdOpsnrGvGY",
        "total_ratings": 1022,
        "plus_code": "FPVQ+55 Pensacola, Florida",
        "vicinity": "6913 Pensacola Blvd, Pensacola"
    },
    {
        "lat": 30.752663,
        "lng": -85.5508598,
        "rating": 4.2,
        "place_id": "ChIJB5m8ixcBk4gRQDBCyscB9sw",
        "total_ratings": 925,
        "plus_code": "QC3X+3M Chipley, Florida",
        "vicinity": "1680 Main St, Chipley"
    },
    {
        "lat": 30.3947902,
        "lng": -86.5070132,
        "rating": 3.7,
        "place_id": "ChIJoZP51FNBkYgRJjXOW24whBk",
        "total_ratings": 593,
        "plus_code": "9FVV+W5 Destin, Florida",
        "vicinity": "209 US-98, Destin"
    },
    {
        "lat": 30.5316426,
        "lng": -87.21941989999999,
        "rating": 4.3,
        "place_id": "ChIJL_iods3qkIgRavOqhs-iPug",
        "total_ratings": 637,
        "plus_code": "GQJJ+J6 Pensacola, Florida",
        "vicinity": "1907 E 9 Mile Rd, Pensacola"
    },
    {
        "lat": 30.6197498,
        "lng": -87.04986,
        "rating": 4.1,
        "place_id": "ChIJQ__7ipDlkIgRI-5cp7zELs4",
        "total_ratings": 987,
        "plus_code": "JX92+W2 Milton, Florida",
        "vicinity": "6558 Caroline St, Milton"
    },
    {
        "lat": 30.2201645,
        "lng": -85.6498355,
        "rating": 4.2,
        "place_id": "ChIJ7R70TqmDk4gRRmqai5vt85Q",
        "total_ratings": 919,
        "plus_code": "69C2+33 Lynn Haven, Florida",
        "vicinity": "2502 FL-77, Lynn Haven"
    },
    {
        "lat": 30.485586,
        "lng": -84.31476889999999,
        "rating": 4.1,
        "place_id": "ChIJaYd7ni307IgREtRNclwKgCY",
        "total_ratings": 1010,
        "plus_code": "FMPP+53 Tallahassee, Florida",
        "vicinity": "3210 N Monroe St, Tallahassee"
    },
    {
        "lat": 30.485586,
        "lng": -84.31476889999999,
        "rating": 4.1,
        "place_id": "ChIJaYd7ni307IgREtRNclwKgCY",
        "total_ratings": 1010,
        "plus_code": "FMPP+53 Tallahassee, Florida",
        "vicinity": "3210 N Monroe St, Tallahassee"
    },
    {
        "lat": 30.5071232,
        "lng": -84.2503306,
        "rating": 4.3,
        "place_id": "ChIJFc3TZsdY7IgRTkYjJ0SnIEk",
        "total_ratings": 901,
        "plus_code": "GP4X+RV Tallahassee, Florida",
        "vicinity": "3470 Thomasville Rd, Tallahassee"
    },
    {
        "lat": 30.4373084,
        "lng": -87.2796808,
        "rating": 4.2,
        "place_id": "ChIJzZNxYuy-kIgRbnthbV3h048",
        "total_ratings": 892,
        "plus_code": "CPPC+W4 Pensacola, Florida",
        "vicinity": "4631 Mobile Hwy, Pensacola"
    },
    {
        "lat": 30.5919899,
        "lng": -87.1764585,
        "rating": 4.3,
        "place_id": "ChIJaaedyHjskIgRaNlnkXK5qxc",
        "total_ratings": 562,
        "plus_code": "HRRF+QC Pace, Florida",
        "vicinity": "4219 Woodbine Rd, Pace"
    },
    {
        "lat": 30.183565,
        "lng": -85.8168836,
        "rating": 4.3,
        "place_id": "ChIJv9ukPS2Jk4gRbPm8ylcHmBs",
        "total_ratings": 1089,
        "plus_code": "55MM+C6 Panama City Beach, Florida",
        "vicinity": "11126 Front Beach Rd, Panama City Beach"
    },
    {
        "lat": 30.5217458,
        "lng": -86.50188229999999,
        "rating": 4.1,
        "place_id": "ChIJv6LQfylqkYgRJ7N5Y5-Obaw",
        "total_ratings": 718,
        "plus_code": "GFCX+M6 Niceville, Florida",
        "vicinity": "628 N John Sims Pkwy, Niceville"
    },
    {
        "lat": 30.4484567,
        "lng": -84.3161808,
        "rating": 4,
        "place_id": "ChIJ9z7XP__07IgRr_Xo2hRs_2g",
        "total_ratings": 588,
        "plus_code": "CMXM+9G Tallahassee, Florida",
        "vicinity": "1939 W Tennessee St, Tallahassee"
    },
    {
        "lat": 30.6039313,
        "lng": -87.1198213,
        "rating": 4.4,
        "place_id": "ChIJb818G8fukIgRStOqC-mO6Mk",
        "total_ratings": 783,
        "plus_code": "JV3J+H3 Pace, Florida",
        "vicinity": "4900 US-90, Pace"
    },
    {
        "lat": 30.4849136,
        "lng": -84.42313829999999,
        "rating": 4,
        "place_id": "ChIJSS_wSBHy7IgRidno1tHlO38",
        "total_ratings": 634,
        "plus_code": "FHMG+XP Midway, Florida",
        "vicinity": "2380 E Brickyard Rd, Midway"
    },
    {
        "lat": 30.4453898,
        "lng": -87.2329022,
        "rating": 4.3,
        "place_id": "ChIJswJ3ynC_kIgRnk-9-dFt-MU",
        "total_ratings": 868,
        "plus_code": "CQW8+5V Pensacola, Florida",
        "vicinity": "3300 W Park Pl, Pensacola"
    },
    {
        "lat": 30.4033475,
        "lng": -86.6028401,
        "rating": 4,
        "place_id": "ChIJPQn6t0k_kYgRCRf67RKrLu4",
        "total_ratings": 767,
        "plus_code": "C93W+8V Fort Walton Beach, Florida",
        "vicinity": "263 Miracle Strip Pkwy SE, Fort Walton Beach"
    },
    {
        "lat": 30.4928821,
        "lng": -87.2620905,
        "rating": 4.4,
        "place_id": "ChIJexfNU9O_kIgRPdOpsnrGvGY",
        "total_ratings": 1022,
        "plus_code": "FPVQ+55 Pensacola, Florida",
        "vicinity": "6913 Pensacola Blvd, Pensacola"
    },
    {
        "lat": 30.4928821,
        "lng": -87.2620905,
        "rating": 4.4,
        "place_id": "ChIJexfNU9O_kIgRPdOpsnrGvGY",
        "total_ratings": 1022,
        "plus_code": "FPVQ+55 Pensacola, Florida",
        "vicinity": "6913 Pensacola Blvd, Pensacola"
    },
    {
        "lat": 30.4928821,
        "lng": -87.2620905,
        "rating": 4.4,
        "place_id": "ChIJexfNU9O_kIgRPdOpsnrGvGY",
        "total_ratings": 1022,
        "plus_code": "FPVQ+55 Pensacola, Florida",
        "vicinity": "6913 Pensacola Blvd, Pensacola"
    },
    {
        "lat": 30.485586,
        "lng": -84.31476889999999,
        "rating": 4.1,
        "place_id": "ChIJaYd7ni307IgREtRNclwKgCY",
        "total_ratings": 1010,
        "plus_code": "FMPP+53 Tallahassee, Florida",
        "vicinity": "3210 N Monroe St, Tallahassee"
    },
    {
        "lat": 30.7840097,
        "lng": -86.5601908,
        "rating": 4.3,
        "place_id": "ChIJhYn3gep0kYgRa1qjRWty3zY",
        "total_ratings": 525,
        "plus_code": "QCMQ+JW Crestview, Florida",
        "vicinity": "1130 N Ferdon Blvd, Crestview"
    },
    {
        "lat": 30.4373084,
        "lng": -87.2796808,
        "rating": 4.2,
        "place_id": "ChIJzZNxYuy-kIgRbnthbV3h048",
        "total_ratings": 892,
        "plus_code": "CPPC+W4 Pensacola, Florida",
        "vicinity": "4631 Mobile Hwy, Pensacola"
    },
    {
        "lat": 30.4928821,
        "lng": -87.2620905,
        "rating": 4.4,
        "place_id": "ChIJexfNU9O_kIgRPdOpsnrGvGY",
        "total_ratings": 1022,
        "plus_code": "FPVQ+55 Pensacola, Florida",
        "vicinity": "6913 Pensacola Blvd, Pensacola"
    },
    {
        "lat": 30.7259329,
        "lng": -85.1860371,
        "rating": 4.2,
        "place_id": "ChIJ87cEj60mk4gR_GYsUNtyJso",
        "total_ratings": 1297,
        "plus_code": "PRG7+9H Marianna, Florida",
        "vicinity": "2215 FL-71, Marianna"
    },
    {
        "lat": 30.4498385,
        "lng": -86.6378094,
        "rating": 4.1,
        "place_id": "ChIJZ-DaFZ8_kYgR1paGirg8PcE",
        "total_ratings": 831,
        "plus_code": "C9X6+WV Fort Walton Beach, Florida",
        "vicinity": "460 Racetrack Rd NW, Fort Walton Beach"
    },
    {
        "lat": 30.183565,
        "lng": -85.8168836,
        "rating": 4.3,
        "place_id": "ChIJv9ukPS2Jk4gRbPm8ylcHmBs",
        "total_ratings": 1089,
        "plus_code": "55MM+C6 Panama City Beach, Florida",
        "vicinity": "11126 Front Beach Rd, Panama City Beach"
    },
    {
        "lat": 30.183565,
        "lng": -85.8168836,
        "rating": 4.3,
        "place_id": "ChIJv9ukPS2Jk4gRbPm8ylcHmBs",
        "total_ratings": 1089,
        "plus_code": "55MM+C6 Panama City Beach, Florida",
        "vicinity": "11126 Front Beach Rd, Panama City Beach"
    },
    {
        "lat": 30.4928821,
        "lng": -87.2620905,
        "rating": 4.4,
        "place_id": "ChIJexfNU9O_kIgRPdOpsnrGvGY",
        "total_ratings": 1022,
        "plus_code": "FPVQ+55 Pensacola, Florida",
        "vicinity": "6913 Pensacola Blvd, Pensacola"
    },
    {
        "lat": 30.183565,
        "lng": -85.8168836,
        "rating": 4.3,
        "place_id": "ChIJv9ukPS2Jk4gRbPm8ylcHmBs",
        "total_ratings": 1089,
        "plus_code": "55MM+C6 Panama City Beach, Florida",
        "vicinity": "11126 Front Beach Rd, Panama City Beach"
    },
    {
        "lat": 30.7840097,
        "lng": -86.5601908,
        "rating": 4.3,
        "place_id": "ChIJhYn3gep0kYgRa1qjRWty3zY",
        "total_ratings": 525,
        "plus_code": "QCMQ+JW Crestview, Florida",
        "vicinity": "1130 N Ferdon Blvd, Crestview"
    },
    {
        "lat": 30.4888687,
        "lng": -86.1226425,
        "rating": 4.3,
        "place_id": "ChIJz5dQSLvdk4gRuxhNU_7jYNo",
        "total_ratings": 443,
        "plus_code": "FVQG+GW Freeport, Florida",
        "vicinity": "16290 US-331, Freeport"
    },
    {
        "lat": 30.7357455,
        "lng": -86.3496054,
        "rating": 4.3,
        "place_id": "ChIJITn-YZx7kYgRExxMe27CFFY",
        "total_ratings": 178,
        "plus_code": "PMP2+75 Defuniak Springs, Florida",
        "vicinity": "17837 ST HWY 285 S, Defuniak Springs"
    },
    {
        "lat": 30.35861969999999,
        "lng": -87.3626608,
        "rating": 4.3,
        "place_id": "ChIJE7CEQNK6kIgRXgsSjFDi5IM",
        "total_ratings": 815,
        "plus_code": "9J5P+CW Pensacola, Florida",
        "vicinity": "10457 Sorrento Rd, Pensacola"
    },
    {
        "lat": 30.4928821,
        "lng": -87.2620905,
        "rating": 4.4,
        "place_id": "ChIJexfNU9O_kIgRPdOpsnrGvGY",
        "total_ratings": 1022,
        "plus_code": "FPVQ+55 Pensacola, Florida",
        "vicinity": "6913 Pensacola Blvd, Pensacola"
    },
    {
        "lat": 30.4028326,
        "lng": -87.33989079999999,
        "rating": 4.3,
        "place_id": "ChIJtWuSIYK7kIgRJjNKqNNwWxU",
        "total_ratings": 682,
        "plus_code": "CM36+32 Pensacola, Florida",
        "vicinity": "9201 US-98, Pensacola"
    },
    {
        "lat": 30.3947902,
        "lng": -86.5070132,
        "rating": 3.7,
        "place_id": "ChIJoZP51FNBkYgRJjXOW24whBk",
        "total_ratings": 593,
        "plus_code": "9FVV+W5 Destin, Florida",
        "vicinity": "209 US-98, Destin"
    },
    {
        "lat": 30.6210174,
        "lng": -86.9648981,
        "rating": 4.2,
        "place_id": "ChIJmdJyrZnjkIgR44W598XU-mY",
        "total_ratings": 1159,
        "plus_code": "J2CP+C2 Milton, Florida",
        "vicinity": "8555 Keshav Taylor Dr, Milton"
    },
    {
        "lat": 30.4928821,
        "lng": -87.2620905,
        "rating": 4.4,
        "place_id": "ChIJexfNU9O_kIgRPdOpsnrGvGY",
        "total_ratings": 1022,
        "plus_code": "FPVQ+55 Pensacola, Florida",
        "vicinity": "6913 Pensacola Blvd, Pensacola"
    },
    {
        "lat": 30.4928821,
        "lng": -87.2620905,
        "rating": 4.4,
        "place_id": "ChIJexfNU9O_kIgRPdOpsnrGvGY",
        "total_ratings": 1022,
        "plus_code": "FPVQ+55 Pensacola, Florida",
        "vicinity": "6913 Pensacola Blvd, Pensacola"
    },
    {
        "lat": 30.7840097,
        "lng": -86.5601908,
        "rating": 4.3,
        "place_id": "ChIJhYn3gep0kYgRa1qjRWty3zY",
        "total_ratings": 525,
        "plus_code": "QCMQ+JW Crestview, Florida",
        "vicinity": "1130 N Ferdon Blvd, Crestview"
    },
    {
        "lat": 30.3947902,
        "lng": -86.5070132,
        "rating": 3.7,
        "place_id": "ChIJoZP51FNBkYgRJjXOW24whBk",
        "total_ratings": 593,
        "plus_code": "9FVV+W5 Destin, Florida",
        "vicinity": "209 US-98, Destin"
    },
    {
        "lat": 30.38892269999999,
        "lng": -86.41990899999999,
        "rating": 4.2,
        "place_id": "ChIJ_1QgO1VDkYgRqvJ3aNdbhYw",
        "total_ratings": 797,
        "plus_code": "9HQJ+H2 Destin, Florida",
        "vicinity": "154 Regions Way, Destin"
    },
    {
        "lat": 30.2201645,
        "lng": -85.6498355,
        "rating": 4.2,
        "place_id": "ChIJ7R70TqmDk4gRRmqai5vt85Q",
        "total_ratings": 919,
        "plus_code": "69C2+33 Lynn Haven, Florida",
        "vicinity": "2502 FL-77, Lynn Haven"
    },
    {
        "lat": 30.6958569,
        "lng": -86.1216927,
        "rating": 4.2,
        "place_id": "ChIJi3GRtU3Qk4gRSYFzjzm2QlU",
        "total_ratings": 1163,
        "plus_code": "MVWH+88 Defuniak Springs, Florida",
        "vicinity": "586 Hugh Adams Rd, Defuniak Springs"
    },
    {
        "lat": 30.3776006,
        "lng": -86.3515207,
        "rating": 4,
        "place_id": "ChIJuUVGPvFbkYgRRY7V7Fu-SL0",
        "total_ratings": 924,
        "plus_code": "9JHX+29 Miramar Beach, Florida",
        "vicinity": "130 Scenic Gulf Dr, Miramar Beach"
    },
    {
        "lat": 30.40196199999999,
        "lng": -86.8639541,
        "rating": 4.3,
        "place_id": "ChIJNaQ_pNUgkYgROY_pOCx_IUw",
        "total_ratings": 1345,
        "plus_code": "C42P+QC Navarre, Florida",
        "vicinity": "8582 Navarre Pkwy, Navarre"
    },
    {
        "lat": 30.485586,
        "lng": -84.31476889999999,
        "rating": 4.1,
        "place_id": "ChIJaYd7ni307IgREtRNclwKgCY",
        "total_ratings": 1010,
        "plus_code": "FMPP+53 Tallahassee, Florida",
        "vicinity": "3210 N Monroe St, Tallahassee"
    },
    {
        "lat": 30.4033475,
        "lng": -86.6028401,
        "rating": 4,
        "place_id": "ChIJPQn6t0k_kYgRCRf67RKrLu4",
        "total_ratings": 767,
        "plus_code": "C93W+8V Fort Walton Beach, Florida",
        "vicinity": "263 Miracle Strip Pkwy SE, Fort Walton Beach"
    },
    {
        "lat": 30.7259329,
        "lng": -85.1860371,
        "rating": 4.2,
        "place_id": "ChIJ87cEj60mk4gR_GYsUNtyJso",
        "total_ratings": 1297,
        "plus_code": "PRG7+9H Marianna, Florida",
        "vicinity": "2215 FL-71, Marianna"
    },
    {
        "lat": 30.7655643,
        "lng": -85.68398549999999,
        "rating": 4.2,
        "place_id": "ChIJlb72o4irk4gRrM4DNrQed_E",
        "total_ratings": 836,
        "plus_code": "Q888+6C Bonifay, Florida",
        "vicinity": "15 Son-In-Law Rd, Bonifay"
    },
    {
        "lat": 30.4484567,
        "lng": -84.3161808,
        "rating": 4,
        "place_id": "ChIJ9z7XP__07IgRr_Xo2hRs_2g",
        "total_ratings": 588,
        "plus_code": "CMXM+9G Tallahassee, Florida",
        "vicinity": "1939 W Tennessee St, Tallahassee"
    },
    {
        "lat": 30.2201645,
        "lng": -85.6498355,
        "rating": 4.2,
        "place_id": "ChIJ7R70TqmDk4gRRmqai5vt85Q",
        "total_ratings": 919,
        "plus_code": "69C2+33 Lynn Haven, Florida",
        "vicinity": "2502 FL-77, Lynn Haven"
    },
    {
        "lat": 30.2203028,
        "lng": -81.5815348,
        "rating": 4.2,
        "place_id": "ChIJI1cCJ0jK5YgRVdjAx-wUK4U",
        "total_ratings": 1320,
        "plus_code": "6CC9+49 Baymeadows Center, Jacksonville, FL",
        "vicinity": "8514 Baymeadows Rd, Jacksonville"
    },
    {
        "lat": 27.0171927,
        "lng": -82.0501354,
        "rating": 4.4,
        "place_id": "ChIJQfWJSJio3IgRL9dCA4FuwD0",
        "total_ratings": 1440,
        "plus_code": "2W8X+VW Port Charlotte, Florida",
        "vicinity": "810 Kings Hwy, Port Charlotte"
    },
    {
        "lat": 26.1201671,
        "lng": -80.261759,
        "rating": 4.1,
        "place_id": "ChIJFwGXWMQH2YgR5oqMQTDnJpg",
        "total_ratings": 1404,
        "plus_code": "4PCQ+27 Plantation, Florida",
        "vicinity": "8460 W Broward Blvd, Plantation"
    },
    {
        "lat": 30.3301062,
        "lng": -82.9639416,
        "rating": 4.2,
        "place_id": "ChIJe-6ByCTe7ogRp1N-9VQ-PtA",
        "total_ratings": 1241,
        "plus_code": "82JP+2C Live Oak, Florida",
        "vicinity": "6635 US-129, Live Oak"
    },
    {
        "lat": 27.7391243,
        "lng": -82.7499897,
        "rating": 4.3,
        "place_id": "ChIJq6daR1n9wogRGLEyRNL7G0Y",
        "total_ratings": 1249,
        "plus_code": "P6QX+JX St Pete Beach, Florida",
        "vicinity": "7070 Gulf Blvd, St Pete Beach"
    },
    {
        "lat": 28.45057,
        "lng": -81.3569498,
        "rating": 4.3,
        "place_id": "ChIJX6xrqN5854gRnx47_5BaGuU",
        "total_ratings": 1869,
        "plus_code": "FJ2V+66 Orlando, Florida",
        "vicinity": "1736 McCoy Rd, Orlando"
    },
    {
        "lat": 28.025877,
        "lng": -82.1499999,
        "rating": 4.3,
        "place_id": "ChIJT1HZgUo03YgR9_r231kDlvk",
        "total_ratings": 1762,
        "plus_code": "2VG2+92 Plant City, Florida",
        "vicinity": "1201 Townsgate Ct, Plant City"
    },
    {
        "lat": 28.3737611,
        "lng": -80.6994752,
        "rating": 4.7,
        "place_id": "ChIJ3QcjC-qp4IgRDbrVsxKZC4E",
        "total_ratings": 1249,
        "plus_code": "98F2+G6 Merritt Island, Florida",
        "vicinity": "950 N Courtenay Pkwy Suite #18, Merritt Island"
    },
    {
        "lat": 27.7391243,
        "lng": -82.7499897,
        "rating": 4.3,
        "place_id": "ChIJq6daR1n9wogRGLEyRNL7G0Y",
        "total_ratings": 1249,
        "plus_code": "P6QX+JX St Pete Beach, Florida",
        "vicinity": "7070 Gulf Blvd, St Pete Beach"
    },
    {
        "lat": 30.2880459,
        "lng": -81.3925024,
        "rating": 4.4,
        "place_id": "ChIJFYHGVqhJ5IgRDIeGH9L_ZsY",
        "total_ratings": 1282,
        "plus_code": "7JQ5+62 Jacksonville Beach, Florida",
        "vicinity": "334 Beach Blvd, Jacksonville Beach"
    },
    {
        "lat": 28.005463,
        "lng": -82.35648259999999,
        "rating": 4.1,
        "place_id": "ChIJkXk1V8XIwogRpTAbd9xuBMo",
        "total_ratings": 1778,
        "plus_code": "2J4V+5C Tampa, Florida",
        "vicinity": "6502 N US HWY 301, Tampa"
    },
    {
        "lat": 25.0994412,
        "lng": -80.43451189999999,
        "rating": 4.4,
        "place_id": "ChIJv7iOMMdp14gRwgHFig_xZhk",
        "total_ratings": 1656,
        "plus_code": "3HX8+Q5 Key Largo, Florida",
        "vicinity": "100211 Overseas Hwy, Key Largo"
    },
    {
        "lat": 28.3056855,
        "lng": -81.4165015,
        "rating": 4.3,
        "place_id": "ChIJ9VGHzByE3YgREwBF0nuCBhY",
        "total_ratings": 1433,
        "plus_code": "8H4M+79 Kissimmee, Florida",
        "vicinity": "1512 John Young Pkwy, Kissimmee"
    },
    {
        "lat": 30.3987474,
        "lng": -83.3577789,
        "rating": 4,
        "place_id": "ChIJeSmtV2eW7ogRRxa7OWR-Pu8",
        "total_ratings": 771,
        "plus_code": "9JXR+GV Madison, Florida",
        "vicinity": "145 SE Bandit St, Madison"
    },
    {
        "lat": 28.8727978,
        "lng": -81.2806226,
        "rating": 4.2,
        "place_id": "ChIJpXwQvm4R54gR7bz-Hd1C0Qg",
        "total_ratings": 1678,
        "plus_code": "VPF9+4Q Deltona, Florida",
        "vicinity": "414 Deltona Blvd, Deltona"
    },
    {
        "lat": 27.4123086,
        "lng": -80.39656719999999,
        "rating": 4.2,
        "place_id": "ChIJccyZ2XDy3ogRoKql41z0jPc",
        "total_ratings": 1266,
        "plus_code": "CJ63+W9 Fort Pierce, Florida",
        "vicinity": "7147 Okeechobee Rd, Fort Pierce"
    },
    {
        "lat": 30.2478016,
        "lng": -81.77807090000002,
        "rating": 4,
        "place_id": "ChIJFXD9yUrH5YgRf6xofw1UItE",
        "total_ratings": 1437,
        "plus_code": "66XC+4Q Jacksonville Heights, Jacksonville, FL",
        "vicinity": "7894 103rd St, Jacksonville"
    },
    {
        "lat": 27.8417567,
        "lng": -82.7628118,
        "rating": 4.3,
        "place_id": "ChIJo9NNQW_7wogRWbdp1xm2Ows",
        "total_ratings": 888,
        "plus_code": "R6RP+PV Seminole, Florida",
        "vicinity": "7670 Starkey Rd, Seminole"
    },
    {
        "lat": 28.005463,
        "lng": -82.35648259999999,
        "rating": 4.1,
        "place_id": "ChIJkXk1V8XIwogRpTAbd9xuBMo",
        "total_ratings": 1778,
        "plus_code": "2J4V+5C Tampa, Florida",
        "vicinity": "6502 N US HWY 301, Tampa"
    },
    {
        "lat": 29.6180254,
        "lng": -82.3828221,
        "rating": 4.1,
        "place_id": "ChIJjzBFiymj6IgRmXB51quW9wE",
        "total_ratings": 1392,
        "plus_code": "JJ98+6V Gainesville, Florida",
        "vicinity": "3919 SW 40th Blvd, Gainesville"
    },
    {
        "lat": 28.005463,
        "lng": -82.35648259999999,
        "rating": 4.1,
        "place_id": "ChIJkXk1V8XIwogRpTAbd9xuBMo",
        "total_ratings": 1778,
        "plus_code": "2J4V+5C Tampa, Florida",
        "vicinity": "6502 N US HWY 301, Tampa"
    },
    {
        "lat": 28.6729317,
        "lng": -81.5065997,
        "rating": 4.3,
        "place_id": "ChIJabsa6Rp254gRZdVcfjmXWao",
        "total_ratings": 1117,
        "plus_code": "MFFV+49 Apopka, Florida",
        "vicinity": "236 E Main St, Apopka"
    },
    {
        "lat": 28.0965497,
        "lng": -81.952139,
        "rating": 4.2,
        "place_id": "ChIJMRbeFc1A3YgR1LfvAOSZMYs",
        "total_ratings": 1640,
        "plus_code": "32WX+J4 Lakeland, Florida",
        "vicinity": "4210 Lakeland Hills Blvd, Lakeland"
    },
    {
        "lat": 30.3517926,
        "lng": -81.5697845,
        "rating": 4.1,
        "place_id": "ChIJUw_jPIaz5YgRCTqfJAS0FNg",
        "total_ratings": 968,
        "plus_code": "9C2J+P3 Arlingwood, Jacksonville, FL",
        "vicinity": "7652 Merrill Rd, Jacksonville"
    },
    {
        "lat": 28.823552,
        "lng": -81.6458861,
        "rating": 4.3,
        "place_id": "ChIJ18xCvlei54gRgL5cIDPANU8",
        "total_ratings": 835,
        "plus_code": "R9F3+CJ Mt Dora, Florida",
        "vicinity": "18744 US-441, Mt Dora"
    },
    {
        "lat": 30.2478016,
        "lng": -81.77807090000002,
        "rating": 4,
        "place_id": "ChIJFXD9yUrH5YgRf6xofw1UItE",
        "total_ratings": 1437,
        "plus_code": "66XC+4Q Jacksonville Heights, Jacksonville, FL",
        "vicinity": "7894 103rd St, Jacksonville"
    },
    {
        "lat": 28.6651938,
        "lng": -81.39070579999999,
        "rating": 4.3,
        "place_id": "ChIJCSxwxHBx54gRV1tscRaHUKk",
        "total_ratings": 1289,
        "plus_code": "MJ85+3P Altamonte Springs, Florida",
        "vicinity": "278 Douglas Ave, Altamonte Springs"
    },
    {
        "lat": 29.6515913,
        "lng": -82.31419059999999,
        "rating": 3.9,
        "place_id": "ChIJe9ISBi6j6IgRwrYLpx_TQxw",
        "total_ratings": 166,
        "plus_code": "MM2P+J8 Gainesville, Florida",
        "vicinity": "915 E University Ave, Gainesville"
    },
    {
        "lat": 28.8263505,
        "lng": -81.7992726,
        "rating": 4.2,
        "place_id": "ChIJz4IKQ2_1rIkRE_8h3jcyBec",
        "total_ratings": 718,
        "plus_code": "R6G2+G8 Leesburg, Florida",
        "vicinity": "9520 US-441, Leesburg"
    },
    {
        "lat": 30.3242634,
        "lng": -81.5299272,
        "rating": 4.1,
        "place_id": "ChIJWRw5jbi05YgR6cCi4eFCzkU",
        "total_ratings": 1425,
        "plus_code": "8FFC+P2 Atlantic Boulevard Estates, Jacksonville, FL",
        "vicinity": "10401 Atlantic Blvd, Jacksonville"
    },
    {
        "lat": 28.3579876,
        "lng": -81.6775395,
        "rating": 4.2,
        "place_id": "ChIJs9QETcR83YgR_dGM4wv6kq4",
        "total_ratings": 1504,
        "plus_code": "985C+5X Clermont, Florida",
        "vicinity": "720 Cagan Vw Rd, Clermont"
    },
    {
        "lat": 28.3340778,
        "lng": -82.69984389999999,
        "rating": 4.4,
        "place_id": "ChIJX_ytrvybwogRpC-x2xauWnQ",
        "total_ratings": 888,
        "plus_code": "88M2+J2 Hudson, Florida",
        "vicinity": "12201 US-19, Hudson"
    },
    {
        "lat": 28.556162,
        "lng": -81.7691803,
        "rating": 0,
        "place_id": "ChIJIR0CiPiP54gRe5hv11g_YWc",
        "total_ratings": 0,
        "plus_code": "H64J+C8 Clermont, Florida",
        "vicinity": "821 W Minneola Ave, Clermont"
    },
    {
        "lat": 30.18798559999999,
        "lng": -81.70195559999999,
        "rating": 4.1,
        "place_id": "ChIJY1njnBDG5YgRev30Og-cuhU",
        "total_ratings": 1048,
        "plus_code": "57QX+56 Orange Park, Florida",
        "vicinity": "165 Park Ave, Orange Park"
    },
    {
        "lat": 30.44833939999999,
        "lng": -81.7040655,
        "rating": 4,
        "place_id": "ChIJfRISL0yl5YgRFOJSE4HKRNY",
        "total_ratings": 1302,
        "plus_code": "C7XW+89 Northside, Jacksonville, FL",
        "vicinity": "11844 Lem Turner Rd, Jacksonville"
    },
    {
        "lat": 29.1450971,
        "lng": -82.1914285,
        "rating": 4.2,
        "place_id": "ChIJtxGKg3bV54gR2qxNecm_Bqs",
        "total_ratings": 55,
        "plus_code": "4RW5+2C Ocala, Florida",
        "vicinity": "4011 SW College Rd, Ocala"
    },
    {
        "lat": 30.2478016,
        "lng": -81.77807090000002,
        "rating": 4,
        "place_id": "ChIJFXD9yUrH5YgRf6xofw1UItE",
        "total_ratings": 1437,
        "plus_code": "66XC+4Q Jacksonville Heights, Jacksonville, FL",
        "vicinity": "7894 103rd St, Jacksonville"
    },
    {
        "lat": 28.45057,
        "lng": -81.3569498,
        "rating": 4.3,
        "place_id": "ChIJX6xrqN5854gRnx47_5BaGuU",
        "total_ratings": 1869,
        "plus_code": "FJ2V+66 Orlando, Florida",
        "vicinity": "1736 McCoy Rd, Orlando"
    },
    {
        "lat": 27.8417567,
        "lng": -82.7628118,
        "rating": 4.3,
        "place_id": "ChIJo9NNQW_7wogRWbdp1xm2Ows",
        "total_ratings": 888,
        "plus_code": "R6RP+PV Seminole, Florida",
        "vicinity": "7670 Starkey Rd, Seminole"
    },
    {
        "lat": 30.2881917,
        "lng": -81.4498832,
        "rating": 4.3,
        "place_id": "ChIJf_lFBTZK5IgRG7qe4g5qUQM",
        "total_ratings": 820,
        "plus_code": "7HQ2+72 Golden Glades/The Woods, Jacksonville, FL",
        "vicinity": "13975 Beach Blvd, Jacksonville"
    },
    {
        "lat": 30.2203028,
        "lng": -81.5815348,
        "rating": 4.2,
        "place_id": "ChIJI1cCJ0jK5YgRVdjAx-wUK4U",
        "total_ratings": 1320,
        "plus_code": "6CC9+49 Baymeadows Center, Jacksonville, FL",
        "vicinity": "8514 Baymeadows Rd, Jacksonville"
    },
    {
        "lat": 28.0262685,
        "lng": -82.5668498,
        "rating": 4.3,
        "place_id": "ChIJzwHls1TrwogRGynnsMjSXn4",
        "total_ratings": 805,
        "plus_code": "2CGM+G6 Tampa, Florida",
        "vicinity": "8310 Wilsky Blvd, Tampa"
    },
    {
        "lat": 27.8214103,
        "lng": -82.6671491,
        "rating": 4.1,
        "place_id": "ChIJZYrhqfXjwogRhK1pXMwHB9g",
        "total_ratings": 1945,
        "plus_code": "R8CM+H4 St. Petersburg, Florida",
        "vicinity": "2525 54th Ave N, St. Petersburg"
    },
    {
        "lat": 26.6846631,
        "lng": -81.7966217,
        "rating": 4.2,
        "place_id": "ChIJe_AAQDxp24gRIQy1eQ2JHeA",
        "total_ratings": 1590,
        "plus_code": "M6M3+V9 Fort Myers, Florida",
        "vicinity": "4050 Boatways Rd, Fort Myers"
    },
    {
        "lat": 28.3056855,
        "lng": -81.4165015,
        "rating": 4.3,
        "place_id": "ChIJ9VGHzByE3YgREwBF0nuCBhY",
        "total_ratings": 1433,
        "plus_code": "8H4M+79 Kissimmee, Florida",
        "vicinity": "1512 John Young Pkwy, Kissimmee"
    },
    {
        "lat": 27.4626731,
        "lng": -82.5861777,
        "rating": 4.2,
        "place_id": "ChIJ_WXKjmwWw4gRA3TwTZmbLzE",
        "total_ratings": 1535,
        "plus_code": "FC77+3G Bradenton, Florida",
        "vicinity": "2400 Cortez Rd W, Bradenton"
    },
    {
        "lat": 26.5649338,
        "lng": -81.9443173,
        "rating": 4.3,
        "place_id": "ChIJJ7OoE1c_24gRi79KZXgNUlg",
        "total_ratings": 1122,
        "plus_code": "H374+X7 Cape Coral, Florida",
        "vicinity": "4642 Del Prado Blvd S, Cape Coral"
    },
    {
        "lat": 26.5649338,
        "lng": -81.9443173,
        "rating": 4.3,
        "place_id": "ChIJJ7OoE1c_24gRi79KZXgNUlg",
        "total_ratings": 1122,
        "plus_code": "H374+X7 Cape Coral, Florida",
        "vicinity": "4642 Del Prado Blvd S, Cape Coral"
    },
    {
        "lat": 29.132991,
        "lng": -81.00877369999999,
        "rating": 4.3,
        "place_id": "ChIJJa__VhPY5ogRecYHmREowxQ",
        "total_ratings": 731,
        "plus_code": "4XMR+6G Port Orange, Florida",
        "vicinity": "3740 S Nova Rd, Port Orange"
    },
    {
        "lat": 28.0262685,
        "lng": -82.5668498,
        "rating": 4.3,
        "place_id": "ChIJzwHls1TrwogRGynnsMjSXn4",
        "total_ratings": 805,
        "plus_code": "2CGM+G6 Tampa, Florida",
        "vicinity": "8310 Wilsky Blvd, Tampa"
    },
    {
        "lat": 29.132991,
        "lng": -81.00877369999999,
        "rating": 4.3,
        "place_id": "ChIJJa__VhPY5ogRecYHmREowxQ",
        "total_ratings": 731,
        "plus_code": "4XMR+6G Port Orange, Florida",
        "vicinity": "3740 S Nova Rd, Port Orange"
    },
    {
        "lat": 25.9722678,
        "lng": -80.14256499999999,
        "rating": 4.1,
        "place_id": "ChIJ72yJ2Yms2YgR_3EmRUTPcwE",
        "total_ratings": 1306,
        "plus_code": "XVC4+WX Aventura, Florida",
        "vicinity": "21215 Biscayne Blvd, Aventura"
    },
    {
        "lat": 28.0965497,
        "lng": -81.952139,
        "rating": 4.2,
        "place_id": "ChIJMRbeFc1A3YgR1LfvAOSZMYs",
        "total_ratings": 1640,
        "plus_code": "32WX+J4 Lakeland, Florida",
        "vicinity": "4210 Lakeland Hills Blvd, Lakeland"
    },
    {
        "lat": 30.1839601,
        "lng": -82.6408716,
        "rating": 4.3,
        "place_id": "ChIJXR_Edng574gR34EM8yajscg",
        "total_ratings": 800,
        "plus_code": "59M5+HJ Lake City, Florida",
        "vicinity": "348 SW Baya Dr, Lake City"
    },
    {
        "lat": 30.2203028,
        "lng": -81.5815348,
        "rating": 4.2,
        "place_id": "ChIJI1cCJ0jK5YgRVdjAx-wUK4U",
        "total_ratings": 1320,
        "plus_code": "6CC9+49 Baymeadows Center, Jacksonville, FL",
        "vicinity": "8514 Baymeadows Rd, Jacksonville"
    },
    {
        "lat": 27.9343628,
        "lng": -82.78774729999999,
        "rating": 4.3,
        "place_id": "ChIJa_Dva4XwwogRGQsFl4WMOtU",
        "total_ratings": 1080,
        "plus_code": "W6M6+PW Clearwater, Florida",
        "vicinity": "1718 S Missouri Ave, Clearwater"
    },
    {
        "lat": 29.132991,
        "lng": -81.00877369999999,
        "rating": 4.3,
        "place_id": "ChIJJa__VhPY5ogRecYHmREowxQ",
        "total_ratings": 731,
        "plus_code": "4XMR+6G Port Orange, Florida",
        "vicinity": "3740 S Nova Rd, Port Orange"
    },
    {
        "lat": 27.990522,
        "lng": -82.73274400000001,
        "rating": 4.4,
        "place_id": "ChIJTdlqiB_uwogRAlpyyC4wnV8",
        "total_ratings": 1484,
        "plus_code": "X7R8+6V Clearwater, Florida",
        "vicinity": "2510 Sunset Point Rd, Clearwater"
    },
    {
        "lat": 29.1767438,
        "lng": -81.08128909999999,
        "rating": 4.1,
        "place_id": "ChIJzUzqktHe5ogRIzjXwxMlTaQ",
        "total_ratings": 1548,
        "plus_code": "5WG9+PF Daytona Beach, Florida",
        "vicinity": "2587 W International Speedway Blvd, Daytona Beach"
    },
    {
        "lat": 28.3340778,
        "lng": -82.69984389999999,
        "rating": 4.4,
        "place_id": "ChIJX_ytrvybwogRpC-x2xauWnQ",
        "total_ratings": 888,
        "plus_code": "88M2+J2 Hudson, Florida",
        "vicinity": "12201 US-19, Hudson"
    },
    {
        "lat": 30.1150172,
        "lng": -81.810858,
        "rating": 4.3,
        "place_id": "ChIJcQa_obDD5YgRiABOtQgYLao",
        "total_ratings": 575,
        "plus_code": "457Q+XJ Middleburg, Florida",
        "vicinity": "1537 Blanding Blvd, Middleburg"
    },
    {
        "lat": 27.9096427,
        "lng": -81.8430929,
        "rating": 4.2,
        "place_id": "ChIJH86aOHAX3YgRcJGyGr9R3c8",
        "total_ratings": 939,
        "plus_code": "W554+VR Bartow, Florida",
        "vicinity": "1530 N Broadway Ave, Bartow"
    },
    {
        "lat": 29.0222852,
        "lng": -81.303097,
        "rating": 4.4,
        "place_id": "ChIJFaQ8DHMb54gRTCB-49U5-b4",
        "total_ratings": 634,
        "plus_code": "2MCW+WQ DeLand, Florida",
        "vicinity": "413 S Woodland Blvd, DeLand"
    },
    {
        "lat": 25.4478898,
        "lng": -80.47922369999999,
        "rating": 0,
        "place_id": "ChIJs7wA89Xn2YgRNLQJSOhiJAU",
        "total_ratings": 0,
        "plus_code": "CGXC+58 Florida City, Florida",
        "vicinity": "Florida City"
    },
    {
        "lat": 27.9964536,
        "lng": -82.5190281,
        "rating": 4.3,
        "place_id": "ChIJCzghVivCwogRpzuWQvPIQ9I",
        "total_ratings": 1526,
        "plus_code": "XFWJ+J9 Tampa, Florida",
        "vicinity": "4459 W Hillsborough Ave, Tampa"
    },
    {
        "lat": 29.9213785,
        "lng": -81.41776680000001,
        "rating": 4.4,
        "place_id": "ChIJvT9sfb0p5IgRzA0XGry9lp4",
        "total_ratings": 654,
        "plus_code": "WHCJ+HV St. Augustine, Florida",
        "vicinity": "2729 FL-16, St. Augustine"
    },
    {
        "lat": 28.7577244,
        "lng": -81.2896183,
        "rating": 4.1,
        "place_id": "ChIJF1ERvn9t54gRXljBQjS7Lt0",
        "total_ratings": 669,
        "plus_code": "QP56+35 Sanford, Florida",
        "vicinity": "336 W Lake Mary Blvd, Sanford"
    },
    {
        "lat": 28.4245775,
        "lng": -81.4051884,
        "rating": 4.2,
        "place_id": "ChIJndBJWJV954gRGJJzydC_H9k",
        "total_ratings": 1499,
        "plus_code": "CHFV+RW Orlando, Florida",
        "vicinity": "9406 S Orange Blossom Trl, Orlando"
    },
    {
        "lat": 28.121712,
        "lng": -80.692166,
        "rating": 4.4,
        "place_id": "ChIJIZ_bGSEP3ogRWztDLOafzaQ",
        "total_ratings": 608,
        "plus_code": "48C5+M4 Melbourne, Florida",
        "vicinity": "4005 W Eau Gallie Blvd, Melbourne"
    },